[
  {
    "instructors": "Matti Juvonen,Chris MacMackin,Qingfeng Xia",
    "end_date": "2020-01-30",
    "url": "https://ukaea-rse-training.github.io/2020-01-15-ukaea-swcarpentry",
    "country": "GB",
    "curriculum": "swc-python",
    "venue": "UK Atomic Energy Authority",
    "longitude": -1.23,
    "slug": "2020-01-15-ukaea-swcarpentry",
    "tag_name": "SWC",
    "helpers": null,
    "host_name": "UK Atomic Energy Authority",
    "latitude": 51.657,
    "start_date": "2020-01-15"
  },
  {
    "instructors": "Gaurav Kandlikar,Madeline Cowen",
    "end_date": "2020-01-19",
    "url": "https://ucla-hacky-hours.gitlab.io/2020-01-18-SWC/",
    "country": "US",
    "curriculum": "swc-reproducible-science",
    "venue": "UCLA",
    "longitude": -118.441609,
    "slug": "2020-01-18-SWC",
    "tag_name": "SWC",
    "helpers": null,
    "host_name": "University of California Los Angeles",
    "latitude": 34.066471,
    "start_date": "2020-01-18"
  },
  {
    "instructors": "Alice Harpole,Sebastian Dick",
    "end_date": "2020-01-21",
    "url": "https://semodi.github.io/2020-01-20-stonybrook/",
    "country": "US",
    "curriculum": "swc-plotting",
    "venue": "Institute for Advanced Computational Science, Stony Brook",
    "longitude": -73.12188,
    "slug": "2020-01-20-stonybrook",
    "tag_name": "SWC",
    "helpers": null,
    "host_name": "Stony Brook University",
    "latitude": 40.91152,
    "start_date": "2020-01-20"
  },
  {
    "instructors": null,
    "end_date": "2020-01-22",
    "url": "https://tgac.github.io/2020-01-21-earlham/",
    "country": "GB",
    "curriculum": "swc-python",
    "venue": "Earlham Institute",
    "longitude": 1.218976,
    "slug": "2020-01-21-earlham",
    "tag_name": "SWC",
    "helpers": null,
    "host_name": "Earlham Institute",
    "latitude": 52.621887,
    "start_date": "2020-01-21"
  },
  {
    "instructors": "Ariel Rokem,Meg Drouhard",
    "end_date": "2020-01-24",
    "url": "https://uwescience.github.io/2020-01-21-uw/",
    "country": "US",
    "curriculum": "swc-python",
    "venue": "The University of Washington eScience Institute",
    "longitude": -122.3140595,
    "slug": "2020-01-21-uw",
    "tag_name": "SWC",
    "helpers": "Ariel Rokem,Meg Drouhard,Eleanor Lutz",
    "host_name": "University of Washington",
    "latitude": 47.6533827,
    "start_date": "2020-01-21"
  },
  {
    "instructors": "Geno Sanchez,Mark Matney",
    "end_date": "2020-01-23",
    "url": "https://ucla-data-archive.github.io/2020-01-22-ucla/",
    "country": "US",
    "curriculum": "swc-python",
    "venue": "UCLA",
    "longitude": -118.4411,
    "slug": "2020-01-22-ucla",
    "tag_name": "SWC",
    "helpers": "Tim Dennis",
    "host_name": "University of California Los Angeles",
    "latitude": 34.0751,
    "start_date": "2020-01-22"
  },
  {
    "instructors": "Gaurav Vaidya,Saber Soleymani",
    "end_date": "2020-01-26",
    "url": "https://ncf0003.github.io/2020-01-25-wvu/",
    "country": "US",
    "curriculum": "swc-plotting",
    "venue": "West Virginia University (Basic Python Workshop)",
    "longitude": -79.954247,
    "slug": "2020-01-25-wvu",
    "tag_name": "SWC",
    "helpers": null,
    "host_name": "West Virginia University",
    "latitude": 39.63321,
    "start_date": "2020-01-25"
  },
  {
    "instructors": "Daniel McCloy,Anthony Valente",
    "end_date": "2020-01-29",
    "url": "https://drammock.github.io/2020-01-28-benaroya_research/",
    "country": "US",
    "curriculum": null,
    "venue": "Benaroya Research Institute (Room 4 North)",
    "longitude": -122.330276,
    "slug": "2019-01-28-benaroya_research",
    "tag_name": "SWC",
    "helpers": null,
    "host_name": "Benaroya Research Institute",
    "latitude": 47.60323,
    "start_date": "2020-01-28"
  },
  {
    "instructors": "Amanda Stahlke,Breanna Sipley",
    "end_date": "2020-01-31",
    "url": "http://astahlke.github.io/2020-01-30-uidaho",
    "country": "US",
    "curriculum": "swc-python",
    "venue": "University of Idaho",
    "longitude": -117.01093,
    "slug": "2020-01-30-uidaho",
    "tag_name": "SWC",
    "helpers": null,
    "host_name": "University of Idaho",
    "latitude": 46.72696,
    "start_date": "2020-01-30"
  },
  {
    "instructors": "Mark Phillips,Kristy Phillips,Manuel (Gio) Gottardi,Maristella Feustle",
    "end_date": "2020-02-05",
    "url": "https://unt-carpentries.github.io/2020-02-04-unt-swc/",
    "country": "US",
    "curriculum": "swc-python",
    "venue": "University of North Texas",
    "longitude": -97.148954,
    "slug": "2020-02-04-unt-swc",
    "tag_name": "SWC",
    "helpers": "Lauren Ko,Madhulika Bayyavarapu",
    "host_name": "University of North Texas",
    "latitude": 33.210068,
    "start_date": "2020-02-04"
  },
  {
    "instructors": "Phillip Doehle",
    "end_date": "2020-02-07",
    "url": "https://osu-carpentry.github.io/2020-02-06-okstate/",
    "country": "US",
    "curriculum": "swc-plotting",
    "venue": "Oklahoma State University",
    "longitude": -97.069743,
    "slug": "2020-02-06-okstate",
    "tag_name": "SWC",
    "helpers": "Kay BJornen",
    "host_name": "Oklahoma State University",
    "latitude": 36.122951,
    "start_date": "2020-02-06"
  },
  {
    "instructors": "Michael Francis,Tito Peña Montenegro",
    "end_date": "2020-02-07",
    "url": "https://uga-carpentries.github.io/2020-02-07-uga/",
    "country": "US",
    "curriculum": "swc-reproducible-science",
    "venue": "University of Georgia",
    "longitude": -83.37608,
    "slug": "2020-02-07-uga",
    "tag_name": "SWC",
    "helpers": "Dung Tran,Hallie Wright,Shiva Makaju,Davis Gimode,Lynsey Kovar",
    "host_name": "University of Georgia",
    "latitude": 33.951663,
    "start_date": "2020-02-07"
  },
  {
    "instructors": "Amanda Miotto",
    "end_date": "2020-02-11",
    "url": "https://gu-eresearch.github.io/2020-02-10-GriffithUni-R/",
    "country": "AU",
    "curriculum": "swc-reproducible-science",
    "venue": "Gold Coast Campus, G11_3.56",
    "longitude": 153.378868,
    "slug": "2020-02-10-GriffithUni-R",
    "tag_name": "SWC",
    "helpers": null,
    "host_name": "Griffith University",
    "latitude": -27.960345,
    "start_date": "2020-02-10"
  },
  {
    "instructors": "Eric Jankowski,Dylan Mikesell,Mike Henry,Brian Jackson,Matt Clark,Kendra Kaiser,Charlie Becker,Neale Ellyson",
    "end_date": "2020-02-12",
    "url": "https://bsurc.github.io/2020-02-11-rc-days/",
    "country": "US",
    "curriculum": "swc-plotting",
    "venue": "Boise State University",
    "longitude": -116.209994,
    "slug": "2020-02-11-rc-days",
    "tag_name": "SWC",
    "helpers": "Kyle Shannon,Dhanush Kumar Ratakonda,Elisabeth Shook,Olga Goulko",
    "host_name": "Boise State University",
    "latitude": 43.604172,
    "start_date": "2020-02-11"
  },
  {
    "instructors": "Hamid Mokhtarzadeh,Cian Wilson",
    "end_date": "2020-02-14",
    "url": "https://cianwilson.github.io/2020-02-13-rice/",
    "country": "US",
    "curriculum": "swc-python",
    "venue": "Rice University",
    "longitude": -95.401833,
    "slug": "2020-02-13-rice",
    "tag_name": "SWC",
    "helpers": null,
    "host_name": "Rice University",
    "latitude": 29.717394,
    "start_date": "2020-02-13"
  },
  {
    "instructors": "Pariksheet Nanda",
    "end_date": "2020-02-28",
    "url": "https://smcclatchy.github.io/2020-02-27-jacksonLab/",
    "country": "US",
    "curriculum": "swc-python",
    "venue": "The Jackson Laboratory for Genomic Medicine",
    "longitude": -72.793328,
    "slug": "2020-02-27-jacksonLab",
    "tag_name": "SWC",
    "helpers": null,
    "host_name": "Jackson Laboratory",
    "latitude": 41.732416,
    "start_date": "2020-02-27"
  },
  {
    "instructors": "Lihong Zhao,Amanda Culley",
    "end_date": "2020-02-28",
    "url": "https://dearmint.github.io/2020-02-27-uidaho/",
    "country": "US",
    "curriculum": "swc-reproducible-science",
    "venue": "University of Idaho",
    "longitude": -117.024304,
    "slug": "2020-02-27-uidaho",
    "tag_name": "SWC",
    "helpers": null,
    "host_name": "University of Idaho",
    "latitude": 46.727284,
    "start_date": "2020-02-27"
  },
  {
    "instructors": "Jarno Rantaharju,João da Silva,Richard Darst",
    "end_date": "2020-03-20",
    "url": "https://rantahar.github.io/2020-03-19-Helsinki/",
    "country": "FI",
    "curriculum": "swc-python",
    "venue": "Kumpula Campus",
    "longitude": 24.96475,
    "slug": "2020-03-19-Helsinki",
    "tag_name": "SWC",
    "helpers": "Kerstin Lenk",
    "host_name": "University of Helsinki",
    "latitude": 60.20911,
    "start_date": "2020-03-19"
  },
  {
    "instructors": "Amanda Miotto",
    "end_date": "2020-03-25",
    "url": "https://gu-eresearch.github.io/2020-03-23-GriffithUni-Python/",
    "country": "AU",
    "curriculum": "swc-python",
    "venue": "Nathan Campus, N78_1.19",
    "longitude": -27.552941,
    "slug": "2020-03-23-GriffithUni-Python",
    "tag_name": "SWC",
    "helpers": null,
    "host_name": "Griffith University",
    "latitude": -27.552941,
    "start_date": "2020-03-23"
  },
  {
    "instructors": "Phillip Doehle",
    "end_date": "2020-05-12",
    "url": "https://osu-carpentry.github.io/2020-05-11-okstate/",
    "country": "US",
    "curriculum": "swc-plotting",
    "venue": "Oklahoma State University",
    "longitude": 36.122987,
    "slug": "2020-05-11-okstate",
    "tag_name": "SWC",
    "helpers": "Kay BJornen",
    "host_name": "Oklahoma State University",
    "latitude": -97.069612,
    "start_date": "2020-05-11"
  },
  {
    "instructors": null,
    "end_date": "2020-05-21",
    "url": "https://sa2c.github.io/2020-05-20-swansea",
    "country": "GB",
    "curriculum": "swc-python",
    "venue": "Singleton Campus, Swansea University",
    "longitude": -3.982323,
    "slug": "2020-05-20-swansea",
    "tag_name": "SWC",
    "helpers": null,
    "host_name": "Swansea University",
    "latitude": 51.609054,
    "start_date": "2020-05-20"
  },
  {
    "instructors": "Amanda Miotto",
    "end_date": "2020-05-28",
    "url": "https://gu-eresearch.github.io/2020-05-26-GriffithUni-Python/",
    "country": "AU",
    "curriculum": "swc-python",
    "venue": "Gold Coast Campus, G42_2.15",
    "longitude": -27.552941,
    "slug": "2020-05-26-GriffithUni-Python",
    "tag_name": "SWC",
    "helpers": null,
    "host_name": "Griffith University",
    "latitude": -27.552941,
    "start_date": "2020-05-26"
  },
  {
    "instructors": "Amanda Miotto",
    "end_date": "2020-07-08",
    "url": "https://gu-eresearch.github.io/2020-07-06-GriffithUni-Python/",
    "country": "AU",
    "curriculum": "swc-python",
    "venue": "Gold Coast Campus, G34_1.05/1.06",
    "longitude": -27.552941,
    "slug": "2020-07-06-GriffithUni-Python",
    "tag_name": "SWC",
    "helpers": null,
    "host_name": "Griffith University",
    "latitude": -27.552941,
    "start_date": "2020-07-06"
  },
  {
    "instructors": "Amanda Miotto",
    "end_date": "2020-08-19",
    "url": "https://gu-eresearch.github.io/2020-08-17-GriffithUni-Python/",
    "country": "AU",
    "curriculum": "swc-python",
    "venue": "Nathan Campus, N78_1.19",
    "longitude": -27.552941,
    "slug": "2020-08-17-GriffithUni-Python",
    "tag_name": "SWC",
    "helpers": null,
    "host_name": "Griffith University",
    "latitude": -27.552941,
    "start_date": "2020-08-17"
  }
]
