[
  {
    "instructors": "Tobin Magle,Lauren Michael,Sarah Stevens,Matt Stone",
    "end_date": "2019-10-09",
    "url": "https://uw-madison-datascience.github.io/2019-09-11-uwmadison-swc/",
    "country": "US",
    "curriculum": "swc-python",
    "venue": "Software Carpentry @ UW-Madison",
    "longitude": -89.41338,
    "slug": "2019-09-11-uwmadison-swc",
    "tag_name": "SWC",
    "helpers": "Trisha Adamus,David Hoese,Tobin Magle,Stephen Meyer,Lauren Michael,Baptiste Mouginot,Matt Stone",
    "host_name": "University of Wisconsin - Madison",
    "latitude": 43.07609,
    "start_date": "2019-09-11"
  },
  {
    "instructors": "Kairsten Fay,Meredith Rawls",
    "end_date": "2019-10-04",
    "url": "https://uwescience.github.io/2019-10-01-uw/",
    "country": "US",
    "curriculum": "swc-python",
    "venue": "The University of Washington",
    "longitude": -122.332071,
    "slug": "2019-10-01-uw",
    "tag_name": "SWC",
    "helpers": "Anthony Valente,Meredith Rawls,Jaime Schatz",
    "host_name": "University of Washington",
    "latitude": 47.606209,
    "start_date": "2019-10-01"
  },
  {
    "instructors": "Frances Wong,Amin Banihashemi,Ashwin Srinath,Elliott Sales de Andrade",
    "end_date": "2019-10-04",
    "url": "https://uoftcoders.github.io/2019-10-03-utoronto/",
    "country": "CA",
    "curriculum": "swc-python",
    "venue": "University of Toronto",
    "longitude": -79.393965,
    "slug": "2019-10-03-utoronto",
    "tag_name": "SWC",
    "helpers": null,
    "host_name": "University of Toronto",
    "latitude": 43.662195,
    "start_date": "2019-10-03"
  },
  {
    "instructors": "Cheyenne Payne,Kristin Lee",
    "end_date": "2019-10-04",
    "url": "https://nesclic.github.io/2019-10-03-whoi/",
    "country": "US",
    "curriculum": "swc-python",
    "venue": "Woods Hole Oceanographic Institution",
    "longitude": -70.6478,
    "slug": "2019-10-03-whoi",
    "tag_name": "SWC",
    "helpers": null,
    "host_name": "Woods Hole Oceanographic Institute",
    "latitude": 41.5349,
    "start_date": "2019-10-03"
  },
  {
    "instructors": "Jon Wheeler,Brett Lord-Castillo",
    "end_date": "2019-10-08",
    "url": "https://jonathanwheeler01.github.io/2019-10-07-missouri/",
    "country": "US",
    "curriculum": "swc-python",
    "venue": "University of Missouri, Columbia",
    "longitude": -92.326505,
    "slug": "2019-10-07-missouri",
    "tag_name": "SWC",
    "helpers": null,
    "host_name": "University of Missouri",
    "latitude": 38.944623,
    "start_date": "2019-10-07"
  },
  {
    "instructors": "Kim Keogh,Brett Parker",
    "end_date": "2019-10-10",
    "url": "https://bio-swc-bne.github.io/2019-10-08-GriffithUni-Python/",
    "country": "AU",
    "curriculum": "swc-python",
    "venue": "Griffith University",
    "longitude": 153.381324,
    "slug": "2019-10-08-GriffithUni-Python",
    "tag_name": "SWC",
    "helpers": null,
    "host_name": "Griffith University",
    "latitude": -27.962539,
    "start_date": "2019-10-08"
  },
  {
    "instructors": "Kees den Heijer,Heather Andrews",
    "end_date": "2019-10-09",
    "url": "https://4turesearchdata-carpentries.github.io/2019-10-08-delft/",
    "country": "NL",
    "curriculum": "swc-python",
    "venue": "October 2019 SWC workshop @TU Delft",
    "longitude": 4.37524,
    "slug": "2019-10-08-delft",
    "tag_name": "SWC",
    "helpers": "Esther Plomp,Nicolas Dintzner,Sobhan Omranian Khorasani,Santosh Ilamparuthi,Susan Branchett",
    "host_name": "Delft Univeristy of Technology",
    "latitude": 52.002677,
    "start_date": "2019-10-08"
  },
  {
    "instructors": "Nihan Pol,Paul Bloom",
    "end_date": "2019-10-10",
    "url": "https://pab2163.github.io/2019-10-09-carnegie/",
    "country": "US",
    "curriculum": "swc-python",
    "venue": "Carnegie Mellon Software Carpentry Workshop: Intro to Python/Git/Unix for Research",
    "longitude": -79.951057,
    "slug": "2019-10-09-carnegie",
    "tag_name": "SWC",
    "helpers": null,
    "host_name": "Carnegie Mellon University",
    "latitude": 40.446088,
    "start_date": "2019-10-09"
  },
  {
    "instructors": "Ye Li,Julie Goldman",
    "end_date": "2019-10-12",
    "url": "https://yelibrarian.github.io/2019-10-11-mit/",
    "country": "US",
    "curriculum": "swc-python",
    "venue": "Massachusetts Institute of Technology",
    "longitude": -71.090542,
    "slug": "2019-10-11-mit",
    "tag_name": "SWC",
    "helpers": "Ece Turnator",
    "host_name": "Massachusetts Institute of Technology",
    "latitude": 42.359689,
    "start_date": "2019-10-11"
  },
  {
    "instructors": "David Pugh",
    "end_date": "2019-10-13",
    "url": "https://kaust-vislab.github.io/2019-10-13-kaust-vislab/",
    "country": "SA",
    "curriculum": "swc-other",
    "venue": "KAUST Visualization Core Lab",
    "longitude": 39.105358,
    "slug": "2019-10-13-kaust-vislab",
    "tag_name": "SWC",
    "helpers": null,
    "host_name": "King Abdullah University of Science and Technology",
    "latitude": 22.307807,
    "start_date": "2019-10-13"
  },
  {
    "instructors": "Thor Wikfeldt,Martin Moche",
    "end_date": "2019-10-15",
    "url": "https://mochma.github.io/2019-10-14_KI/",
    "country": "SE",
    "curriculum": "swc-python",
    "venue": "Karolinska Institutet",
    "longitude": 18.02364,
    "slug": "2019-10-14-KI",
    "tag_name": "SWC",
    "helpers": null,
    "host_name": "KTH Royal Institute of Technology",
    "latitude": 59.34617,
    "start_date": "2019-10-14"
  },
  {
    "instructors": "Joshua Stough,Rucheng Diao,Morgan Oneka",
    "end_date": "2019-10-15",
    "url": "https://umswc.github.io/2019-10-14-umich/",
    "country": "US",
    "curriculum": "swc-r",
    "venue": "University of Michigan",
    "longitude": -83.73823,
    "slug": "2019-10-14-umich",
    "tag_name": "SWC",
    "helpers": "Sarah Tomkovich",
    "host_name": "University of Michigan",
    "latitude": 42.276616,
    "start_date": "2019-10-14"
  },
  {
    "instructors": "James Desjardins,Tim Ribaric,Daniel Brett",
    "end_date": "2019-10-16",
    "url": "https://brockdsl.github.io/2019-10-15-BrockU/",
    "country": "CA",
    "curriculum": "swc-python",
    "venue": "Brock Digital Scholarship Lab",
    "longitude": -79.242897,
    "slug": "2019-10-15-BrockU",
    "tag_name": "SWC",
    "helpers": null,
    "host_name": "Brock University",
    "latitude": 43.11747,
    "start_date": "2019-10-15"
  },
  {
    "instructors": "Amanda Miotto",
    "end_date": "2019-10-17",
    "url": "https://bio-swc-bne.github.io/2019-10-16-GriffithUni-R/",
    "country": "AU",
    "curriculum": "swc-r",
    "venue": "Griffith University",
    "longitude": 153.378868,
    "slug": "2019-10-16-Griffith",
    "tag_name": "SWC",
    "helpers": null,
    "host_name": "Griffith University",
    "latitude": -27.960345,
    "start_date": "2019-10-16"
  },
  {
    "instructors": "Malvika Sharan,Toby Hodges,Thomas Schwarzl,Mike Smith,Holger Dinkel,Frank Thommen",
    "end_date": "2019-10-18",
    "url": "https://malvikasharan.github.io/2019-10-16-heidelberg/",
    "country": "DE",
    "curriculum": "swc-other,swc-python",
    "venue": "Computing Skills For Reproducible Research: Software Carpentry - EMBL, Heidelberg",
    "longitude": 8.710757,
    "slug": "2019-10-16-heidelberg",
    "tag_name": "SWC",
    "helpers": "Thea Van Rossum,Georg Zeller",
    "host_name": "European Molecular Biology Laboratory",
    "latitude": 49.38406,
    "start_date": "2019-10-16"
  },
  {
    "instructors": "Stephanie Pierce,Michael Gibbs",
    "end_date": "2019-10-19",
    "url": "https://marieeriley.github.io/2019-10-18-uark/",
    "country": "US",
    "curriculum": "swc-python",
    "venue": "University of Arkansas",
    "longitude": -94.168058,
    "slug": "2019-10-18-uark",
    "tag_name": "SWC",
    "helpers": "James McCartney,Joe Paparo,Lora Lennertz,Nick Salonen",
    "host_name": "University of Arkansas",
    "latitude": 36.042345,
    "start_date": "2019-10-18"
  },
  {
    "instructors": "Ashar Malik",
    "end_date": "2019-10-23",
    "url": "https://proteinmechanic.github.io/2019-10-21-BioinformaticsInstitute/",
    "country": "SG",
    "curriculum": "swc-other",
    "venue": "The Bioinformatics Institute, A*STAR",
    "longitude": 103.792545,
    "slug": "2019-10-21-BioinformaticsInstitute",
    "tag_name": "SWC",
    "helpers": null,
    "host_name": "The Bioinformatics Institute",
    "latitude": 1.303419,
    "start_date": "2019-10-21"
  },
  {
    "instructors": "Carrie Brown",
    "end_date": "2019-10-22",
    "url": "http://rcg.usd.edu/2019-10-21-USD/",
    "country": "US",
    "curriculum": "swc-reproducible-science",
    "venue": "University of South Dakota",
    "longitude": -96.923922,
    "slug": "2019-10-21-USD",
    "tag_name": "SWC",
    "helpers": "Ryan Johnson",
    "host_name": "University of Nebraska",
    "latitude": 42.785553,
    "start_date": "2019-10-21"
  },
  {
    "instructors": "Niall Beard,David Perez-Suarez",
    "end_date": "2019-10-22",
    "url": "https://uio-carpentry.github.io/2019-10-21-swc-ntnu/",
    "country": "NO",
    "curriculum": "swc-python",
    "venue": "Norwegian University of Science and Technology",
    "longitude": 10.39844,
    "slug": "2019-10-21-swc-ntnu",
    "tag_name": "SWC",
    "helpers": null,
    "host_name": "University of Oslo",
    "latitude": 63.43457,
    "start_date": "2019-10-21"
  },
  {
    "instructors": "Yuka Takemon,Bruno Grande",
    "end_date": "2019-10-23",
    "url": "https://ytakemon.github.io/2019-10-22-R-BCCRC/",
    "country": "CA",
    "curriculum": "swc-reproducible-science",
    "venue": "BC Cancer Research Centre",
    "longitude": -123.11872,
    "slug": "2019-10-22-R-BCCRC",
    "tag_name": "SWC",
    "helpers": null,
    "host_name": "British Columbia Cancer Research Centre",
    "latitude": 49.26258,
    "start_date": "2019-10-22"
  },
  {
    "instructors": "Luke Johnston,Kristian Tylén",
    "end_date": "2019-10-23",
    "url": "https://au-cru.github.io/2019-10-22-aarhus/",
    "country": "DK",
    "curriculum": "swc-r",
    "venue": "Aarhus University",
    "longitude": 10.190455,
    "slug": "2019-10-22-aarhus",
    "tag_name": "SWC",
    "helpers": "oana vuculescu",
    "host_name": "Aarhus University",
    "latitude": 56.172332,
    "start_date": "2019-10-22"
  },
  {
    "instructors": "Daniel Stubbs,Nikolai Sergueev",
    "end_date": "2019-10-25",
    "url": "https://computecanada.github.io/2019-10-24-umontreal/",
    "country": "CA",
    "curriculum": "swc-python",
    "venue": "Université de Montréal",
    "longitude": -73.617541,
    "slug": "2019-10-24-umontreal",
    "tag_name": "SWC",
    "helpers": "Pier-Luc St-Onge,Bart Oldeman",
    "host_name": "Universite de Montreal",
    "latitude": 45.502277,
    "start_date": "2019-10-24"
  },
  {
    "instructors": "Uwe Hilgert,Xue Pan,Sateesh Peri,Travis Struck",
    "end_date": "2019-10-27",
    "url": "https://UA-Carpentries-Workshops.github.io/2019-10-26-Tucson",
    "country": "US",
    "curriculum": "swc-reproducible-science",
    "venue": "University of Arizona",
    "longitude": -110.9495,
    "slug": "2019-10-26-Tucson",
    "tag_name": "SWC",
    "helpers": "Cristian Palacios,Fernando Rios",
    "host_name": "University of Arizona",
    "latitude": 32.231901,
    "start_date": "2019-10-26"
  },
  {
    "instructors": "Kevin Dyke,Peter Hoyt",
    "end_date": "2019-11-22",
    "url": "https://osu-carpentry.github.io/2019-11-01-okstate/",
    "country": "US",
    "curriculum": "swc-python",
    "venue": "Oklahoma State University",
    "longitude": -97.069612,
    "slug": "2019-11-01-okstate",
    "tag_name": "SWC",
    "helpers": "Hua Lin",
    "host_name": "Oklahoma State University",
    "latitude": 36.122987,
    "start_date": "2019-11-01"
  },
  {
    "instructors": "David Pugh",
    "end_date": "2019-11-03",
    "url": "https://kaust-vislab.github.io/2019-11-03-kaust-vislab/",
    "country": "SA",
    "curriculum": "swc-other",
    "venue": "KAUST Visualization Lab",
    "longitude": 39.105358,
    "slug": "2019-11-03-kaust-vislab",
    "tag_name": "SWC",
    "helpers": null,
    "host_name": "King Abdullah University of Science and Technology",
    "latitude": 22.307807,
    "start_date": "2019-11-03"
  },
  {
    "instructors": "David Pugh",
    "end_date": "2019-11-04",
    "url": "https://kaust-vislab.github.io/2019-11-04-kaust-vislab/",
    "country": "SA",
    "curriculum": "swc-other",
    "venue": "KAUST Visualization Lab",
    "longitude": 39.105358,
    "slug": "2019-11-04-kaust-vislab",
    "tag_name": "SWC",
    "helpers": null,
    "host_name": "King Abdullah University of Science and Technology",
    "latitude": 22.307807,
    "start_date": "2019-11-04"
  },
  {
    "instructors": "Amanda Miotto",
    "end_date": "2019-11-22",
    "url": "https://bio-swc-bne.github.io/2019-11-20-GriffithUni-Python/",
    "country": "AU",
    "curriculum": "swc-python",
    "venue": "Griffith University",
    "longitude": 153.052425,
    "slug": "2019-11-20-Griffith",
    "tag_name": "SWC",
    "helpers": null,
    "host_name": "Griffith University",
    "latitude": -27.552941,
    "start_date": "2019-11-20"
  },
  {
    "instructors": "Inigo Aldazabal Mensa,Andrés Díaz-Gil,Alfonso Nunez,Bryan Zaldivar",
    "end_date": "2019-11-29",
    "url": "https://marcosjerez.github.io/2019-11-27-cftmat",
    "country": "ES",
    "curriculum": "swc-other,swc-python",
    "venue": "Centro de Física Teórica y Matemáticas",
    "longitude": -3.687608,
    "slug": "2019-11-27-cftmat",
    "tag_name": "SWC",
    "helpers": "Marcos Ramírez,Emilio Ambite,Eduardo de Cordoba",
    "host_name": "The Centro de Física Teórica y Matemáticas (CFTMAT)",
    "latitude": 40.549532,
    "start_date": "2019-11-27"
  }
]
