[
  {
    "end_date": "2019-04-19",
    "url": "https://broadwym.github.io/2019-03-15-vanderbilt/",
    "country": "US",
    "instructors": "Meredith Broadway",
    "venue": "Vanderbilt University",
    "longitude": -86.79943,
    "slug": "2019-03-15-vanderbilt",
    "tag_name": "SWC",
    "helpers": "Elisabeth Shook,Will French,Steve Baskauf,Lindsey Fox,Stacy Johnson",
    "host_name": "Vanderbilt University",
    "latitude": 36.14743,
    "start_date": "2019-03-15"
  },
  {
    "end_date": "2019-04-13",
    "url": "https://nesclic.github.io/2019-04-12-tufts/",
    "country": "US",
    "instructors": "Kristin Lee,Travis Lilleberg,Kyle Monahan,Lenny Paritsky",
    "venue": "Tufts University",
    "longitude": -71.11884,
    "slug": "2019-04-12-tufts",
    "tag_name": "SWC",
    "helpers": null,
    "host_name": "Tufts University",
    "latitude": 42.406172,
    "start_date": "2019-04-12"
  },
  {
    "end_date": "2019-04-17",
    "url": "https://bio-swc-bne.github.io/2019-04-15-GriffithUni-Python/",
    "country": "AU",
    "instructors": "Amanda Miotto",
    "venue": "Griffith University",
    "longitude": 153.052425,
    "slug": "2019-04-15-Griffith",
    "tag_name": "SWC",
    "helpers": null,
    "host_name": "Griffith University",
    "latitude": -27.552941,
    "start_date": "2019-04-15"
  },
  {
    "end_date": "2019-04-16",
    "url": "https://eresearchsandpit.github.io/2019-04-15-Victoria_NiWA/",
    "country": "NZ",
    "instructors": "Andre Geldenhuis,Alexander Pletzer,Mandes Schönherr",
    "venue": "Room TTR205, Te Toki o Rata Building, Kelburn Campus, Victoria University of Wellington",
    "longitude": 174.7669551,
    "slug": "2019-04-15-Victoria_NiWA",
    "tag_name": "SWC",
    "helpers": "Matt Plummer,Jonny Williams,Wolfgang Hayek",
    "host_name": "Victoria University of Wellington",
    "latitude": -41.289884,
    "start_date": "2019-04-15"
  },
  {
    "end_date": "2019-07-17",
    "url": "https://elixir-belgium.github.io/2019-04-16-BRU/",
    "country": "BE",
    "instructors": "Malvika Sharan,Stijn Van Hoey,Christof De Bo",
    "venue": "ELIXIR-Belgium Brussels",
    "longitude": 4.394176,
    "slug": "2019-04-16-BRU",
    "tag_name": "SWC",
    "helpers": null,
    "host_name": "ELIXIR-UK",
    "latitude": 50.824343,
    "start_date": "2019-04-16"
  },
  {
    "end_date": "2019-04-17",
    "url": "https://zpainter.github.io/2019-04-16-Stanford/",
    "country": "US",
    "instructors": "Kim Durante,Zac Painter,Mary-Ellen Petrich",
    "venue": "Stanford University Libraries",
    "longitude": -122.169716,
    "slug": "2019-04-16-Stanford",
    "tag_name": "SWC",
    "helpers": "Amy Hodge,Saulo de Oliveira,Satoshi Yokota",
    "host_name": "Stanford University",
    "latitude": 37.427475,
    "start_date": "2019-04-16"
  },
  {
    "end_date": "2019-04-17",
    "url": "https://sa2c.github.io/2019-04-16-swansea/",
    "country": "GB",
    "instructors": "Ed Bennett,Mark Dawson",
    "venue": "Swansea University",
    "longitude": -3.878739,
    "slug": "2019-04-16-swansea",
    "tag_name": "SWC",
    "helpers": null,
    "host_name": "Swansea University",
    "latitude": 51.619229,
    "start_date": "2019-04-16"
  },
  {
    "end_date": "2019-04-18",
    "url": "https://denubis.github.io/2019-04-17-MacquarieUniversity/",
    "country": "AU",
    "instructors": "Brian Ballsun-Stanton,Wilfred Gee",
    "venue": "Macquarie University",
    "longitude": 151.113281,
    "slug": "2019-04-17-MacquarieUniversity",
    "tag_name": "SWC",
    "helpers": "Peter Ha",
    "host_name": "Macquarie University",
    "latitude": -33.774804,
    "start_date": "2019-04-17"
  },
  {
    "end_date": "2019-05-10",
    "url": "https://uomresearchit.github.io/2019-05-09-manchester/",
    "country": "GB",
    "instructors": "Gerard Capes,Ann Gledson,Peter Crowther",
    "venue": "University Of Manchester",
    "longitude": -2.233694,
    "slug": "2019-05-09-manchester",
    "tag_name": "SWC",
    "helpers": null,
    "host_name": "University of Manchester",
    "latitude": 53.466817,
    "start_date": "2019-05-09"
  },
  {
    "end_date": "2019-05-11",
    "url": "https://nesclic.github.io/2019-05-10-tuftsUEP/",
    "country": "US",
    "instructors": "Allison Gofman,Kyle Monahan",
    "venue": "Tisch Library, Tufts University",
    "longitude": -71.11884,
    "slug": "2019-05-10-tuftsUEP",
    "tag_name": "SWC",
    "helpers": "Kristin Lee",
    "host_name": "Tufts University",
    "latitude": 42.406172,
    "start_date": "2019-05-10"
  },
  {
    "end_date": "2019-05-17",
    "url": "https://gwu-libraries.github.io/2019-05-16-gwu/",
    "country": "US",
    "instructors": "Daniel Kerchner,Megan Potterbusch,Laura Wrubel",
    "venue": "George Washington University",
    "longitude": -77.048386,
    "slug": "2019-05-16-gwu",
    "tag_name": "SWC",
    "helpers": null,
    "host_name": "George Washington University",
    "latitude": 38.899233,
    "start_date": "2019-05-16"
  },
  {
    "end_date": "2019-05-17",
    "url": "https://njhdunn.github.io/2019-05-16-umntc/",
    "country": "US",
    "instructors": "Nicholas Dunn,Cody Hennesy,Caitlin Bakker",
    "venue": "University of Minnesota",
    "longitude": -93.243129,
    "slug": "2019-05-16-umntc",
    "tag_name": "SWC",
    "helpers": "Caitlin Bakker,Nicholas Dunn,Cody Hennesy",
    "host_name": "University of Minnesota",
    "latitude": 44.973394,
    "start_date": "2019-05-16"
  },
  {
    "end_date": "2019-05-23",
    "url": "https://davebridges.github.io/2019-05-23-shapiro/",
    "country": "US",
    "instructors": "Dave Bridges,Michael Wolfe",
    "venue": "University of Michigan",
    "longitude": -83.737228,
    "slug": "2019-05-23-shapiro",
    "tag_name": "SWC",
    "helpers": null,
    "host_name": "University of Michigan",
    "latitude": 42.275961,
    "start_date": "2019-05-22"
  },
  {
    "end_date": "2019-06-01",
    "url": "https://gboushey.github.io/2019-05-29-UCSF-R/",
    "country": "US",
    "instructors": "Karla Lindquist,Angelo Pelonero,Geoffrey Boushey",
    "venue": "University of California, San Francisco",
    "longitude": 122.3944,
    "slug": "2019-05-29-UCSF-R",
    "tag_name": "SWC",
    "helpers": null,
    "host_name": "University of California San Francisco",
    "latitude": 37.7938,
    "start_date": "2019-05-29"
  },
  {
    "end_date": "2019-06-04",
    "url": "https://fpsom.github.io/2019-06-03-elixir-athens-eie",
    "country": "GR",
    "instructors": "Thor Wikfeldt,Fotis Psomopoulos",
    "venue": "National Hellenic Research Foundation",
    "longitude": 23.745407,
    "slug": "2019-06-03-elixir-athens-eie",
    "tag_name": "SWC",
    "helpers": null,
    "host_name": "ELIXIR-UK",
    "latitude": 37.973198,
    "start_date": "2019-06-03"
  },
  {
    "end_date": "2019-06-05",
    "url": "https://epfllibrary.github.io/2019-06-04-epfl",
    "country": "",
    "instructors": "Jérôme Chaptinel,Raphaël Grolimund,Antoine Masson,Mathilde Panes",
    "venue": "Ecole Polytechnique Fédérale de Lausanne",
    "longitude": 6.568473,
    "slug": "2019-06-04-epfl",
    "tag_name": "SWC",
    "helpers": "Ludovic Bonivento,C_cile Hardebolle",
    "host_name": "École polytechnique fédérale de Lausanne",
    "latitude": 46.518445,
    "start_date": "2019-06-04"
  },
  {
    "end_date": "2019-06-12",
    "url": "https://bio-swc-bne.github.io/2019-06-11-GriffithUni-R/",
    "country": "AU",
    "instructors": "Amanda Miotto",
    "venue": "Griffith University",
    "longitude": 153.052425,
    "slug": "2019-06-11-Griffith",
    "tag_name": "SWC",
    "helpers": null,
    "host_name": "Griffith University",
    "latitude": -27.552941,
    "start_date": "2019-06-11"
  },
  {
    "end_date": "2019-06-25",
    "url": "https://fgacenga.github.io/2019-06-24-usq",
    "country": "AU",
    "instructors": "Francis Gacenga,Richard Young",
    "venue": "University of Southern Queensland",
    "longitude": 151.935113,
    "slug": "2019-06-24-usq",
    "tag_name": "SWC",
    "helpers": null,
    "host_name": "University of Southern Queensland",
    "latitude": -27.606578,
    "start_date": "2019-06-24"
  },
  {
    "end_date": "2019-08-08",
    "url": "https://bio-swc-bne.github.io/2019-08-06-GriffithUni-Python/",
    "country": "AU",
    "instructors": "Amanda Miotto",
    "venue": "Griffith University",
    "longitude": 153.378868,
    "slug": "2019-08-06-Griffith",
    "tag_name": "SWC",
    "helpers": null,
    "host_name": "Griffith University",
    "latitude": -27.960345,
    "start_date": "2019-08-06"
  },
  {
    "end_date": "2019-10-03",
    "url": "https://fgacenga.github.io/2019-10-02-usq/",
    "country": "AU",
    "instructors": "Francis Gacenga,Richard Young",
    "venue": "University of Southern Queensland",
    "longitude": 152.907227,
    "slug": "2019-10-02-usq",
    "tag_name": "SWC",
    "helpers": null,
    "host_name": "University of Southern Queensland",
    "latitude": -27.68401,
    "start_date": "2019-10-02"
  },
  {
    "end_date": "2019-10-17",
    "url": "https://bio-swc-bne.github.io/2019-10-16-GriffithUni-R/",
    "country": "AU",
    "instructors": "Amanda Miotto",
    "venue": "Griffith University",
    "longitude": 153.378868,
    "slug": "2019-10-16-Griffith",
    "tag_name": "SWC",
    "helpers": null,
    "host_name": "Griffith University",
    "latitude": -27.960345,
    "start_date": "2019-10-16"
  },
  {
    "end_date": "2019-11-22",
    "url": "https://bio-swc-bne.github.io/2019-11-20-GriffithUni-Python/",
    "country": "AU",
    "instructors": "Amanda Miotto",
    "venue": "Griffith University",
    "longitude": 153.052425,
    "slug": "2019-11-20-Griffith",
    "tag_name": "SWC",
    "helpers": null,
    "host_name": "Griffith University",
    "latitude": -27.552941,
    "start_date": "2019-11-20"
  }
]
