[
  {
    "end_date": "2019-07-17",
    "url": "https://elixir-belgium.github.io/2019-04-16-BRU/",
    "country": "BE",
    "instructors": "Malvika Sharan,Stijn Van Hoey,Christof De Bo",
    "venue": "ELIXIR-Belgium Brussels",
    "longitude": 4.394176,
    "slug": "2019-04-16-BRU",
    "tag_name": "SWC",
    "helpers": null,
    "host_name": "ELIXIR-UK",
    "latitude": 50.824343,
    "start_date": "2019-04-16"
  },
  {
    "end_date": "2019-06-04",
    "url": "https://rbeagrie.github.io/2019-03-26-WIMM-Python/",
    "country": "GB",
    "instructors": "Robert Beagrie,Nicki GRAY",
    "venue": "MRC Weatherall Institute of Molecular Medicine",
    "longitude": -1.216999,
    "slug": "2019-03-26-WIMM-Python",
    "tag_name": "SWC",
    "helpers": null,
    "host_name": "University of Oxford",
    "latitude": 51.76337,
    "start_date": "2019-05-14"
  },
  {
    "end_date": "2019-05-17",
    "url": "https://gwu-libraries.github.io/2019-05-16-gwu/",
    "country": "US",
    "instructors": "Daniel Kerchner,Megan Potterbusch,Laura Wrubel",
    "venue": "George Washington University",
    "longitude": -77.048386,
    "slug": "2019-05-16-gwu",
    "tag_name": "SWC",
    "helpers": null,
    "host_name": "George Washington University",
    "latitude": 38.899233,
    "start_date": "2019-05-16"
  },
  {
    "end_date": "2019-05-17",
    "url": "https://njhdunn.github.io/2019-05-16-umntc/",
    "country": "US",
    "instructors": "Nicholas Dunn,Cody Hennesy,Caitlin Bakker",
    "venue": "University of Minnesota",
    "longitude": -93.243129,
    "slug": "2019-05-16-umntc",
    "tag_name": "SWC",
    "helpers": "Caitlin Bakker,Nicholas Dunn,Cody Hennesy",
    "host_name": "University of Minnesota",
    "latitude": 44.973394,
    "start_date": "2019-05-16"
  },
  {
    "end_date": "2019-05-18",
    "url": "https://dagimy.github.io/2019-05-17-SWC-HU/",
    "country": "ET",
    "instructors": "Dagim Mengesha",
    "venue": "Hawassa University",
    "longitude": 38.499797,
    "slug": "2019-05-17-SWC-HU",
    "tag_name": "SWC",
    "helpers": null,
    "host_name": "Addis Ababa University",
    "latitude": 7.05183,
    "start_date": "2019-05-17"
  },
  {
    "end_date": "2019-05-21",
    "url": "https://workshops-ukzn.github.io/2019-05-20-UKZN-SWC/",
    "country": "ZA",
    "instructors": "Oluwafisayo Kaka,Tadiwanashe Gutsa",
    "venue": "UKZN, Westville Campus",
    "longitude": 30.945906,
    "slug": "2019-05-20-UKZN-SWC",
    "tag_name": "SWC",
    "helpers": "Moses Okpeku,Marie-Louise Umuhire,OLUFISAYO SUNDAY EKUNDAYO",
    "host_name": "University of KwaZulu Natal",
    "latitude": -29.818203,
    "start_date": "2019-05-20"
  },
  {
    "end_date": "2019-05-22",
    "url": "https://swc-uiuc.github.io/2019-05-21-ncsa/",
    "country": "US",
    "instructors": "Samniqueka Halsey,Dena Strong,Maxim Belkin",
    "venue": "National Center for Supercomputing Applications",
    "longitude": -88.225004,
    "slug": "2019-05-21-ncsa",
    "tag_name": "SWC",
    "helpers": "David Mussulman,Halie Rando",
    "host_name": "National Center for Supercomputing Applications, University of Illinois at Urbana–Champaign",
    "latitude": 40.114832,
    "start_date": "2019-05-21"
  },
  {
    "end_date": "2019-05-23",
    "url": "https://drlabratory.github.io/2019-05-22-genentech/",
    "country": "US",
    "instructors": "Jeramia Ory,Kok Ben Toh",
    "venue": "Genentech",
    "longitude": -122.381991,
    "slug": "2019-05-22-genentech",
    "tag_name": "SWC",
    "helpers": null,
    "host_name": "Genentech",
    "latitude": 37.652106,
    "start_date": "2019-05-22"
  },
  {
    "end_date": "2019-05-23",
    "url": "https://ekirving.github.io/2019-05-22-oxford/",
    "country": "GB",
    "instructors": "Evan Irving-Pease,Antony Dimopoulos",
    "venue": "School of Archaeology, University of Oxford",
    "longitude": -1.2473,
    "slug": "2019-05-22-oxford",
    "tag_name": "SWC",
    "helpers": "Audrey Lin,Richard Allen",
    "host_name": "University of Oxford",
    "latitude": 51.75682,
    "start_date": "2019-05-22"
  },
  {
    "end_date": "2019-05-23",
    "url": "https://davebridges.github.io/2019-05-23-shapiro/",
    "country": "US",
    "instructors": "Dave Bridges,Michael Wolfe",
    "venue": "University of Michigan",
    "longitude": -83.737228,
    "slug": "2019-05-23-shapiro",
    "tag_name": "SWC",
    "helpers": null,
    "host_name": "University of Michigan",
    "latitude": 42.275961,
    "start_date": "2019-05-22"
  },
  {
    "end_date": "2019-05-29",
    "url": "https://unt-carpentries.github.io/2019-05-28-unt-swc/",
    "country": "US",
    "instructors": "Jason Ellis,Kristy Phillips,Madhulika Bayyavarapu,Manuel (Gio) Gottardi",
    "venue": "University of North Texas",
    "longitude": -97.148954,
    "slug": "2019-05-28-unt-swc",
    "tag_name": "SWC",
    "helpers": null,
    "host_name": "University of North Texas",
    "latitude": 33.210068,
    "start_date": "2019-05-28"
  },
  {
    "end_date": "2019-06-01",
    "url": "https://gboushey.github.io/2019-05-29-UCSF-R/",
    "country": "US",
    "instructors": "Karla Lindquist,Angelo Pelonero,Geoffrey Boushey",
    "venue": "University of California, San Francisco",
    "longitude": 122.3944,
    "slug": "2019-05-29-UCSF-R",
    "tag_name": "SWC",
    "helpers": null,
    "host_name": "University of California San Francisco",
    "latitude": 37.7938,
    "start_date": "2019-05-29"
  },
  {
    "end_date": "2019-05-30",
    "url": "https://math2522.github.io/2019-05-29-elixir-nottingham/",
    "country": "GB",
    "instructors": "Wagner Barløse Mathias,Punam Amratia",
    "venue": "University of Nottingham",
    "longitude": -1.19467,
    "slug": "2019-05-29-elixir-nottingham",
    "tag_name": "SWC",
    "helpers": null,
    "host_name": "ELIXIR-UK",
    "latitude": 52.934502,
    "start_date": "2019-05-29"
  },
  {
    "end_date": "2019-05-31",
    "url": "https://philreeddata.github.io/2019-05-30-elixir-portugal/",
    "country": "PT",
    "instructors": "Phil Reed,Eric Persson",
    "venue": "Instituto Gulbenkian de Ciência",
    "longitude": null,
    "slug": "2019-05-30-elixir-portugal",
    "tag_name": "SWC",
    "helpers": null,
    "host_name": "ELIXIR-UK",
    "latitude": null,
    "start_date": "2019-05-30"
  },
  {
    "end_date": "2019-05-31",
    "url": "https://oulib-swc.github.io/2019-05-30-ou-swc-tulsa/",
    "country": "US",
    "instructors": "Claire Curry,Brent Tweedy",
    "venue": "University of Oklahoma Schusterman Library, Tulsa",
    "longitude": -95.922955,
    "slug": "2019-05-30-ou-swc-tulsa",
    "tag_name": "SWC",
    "helpers": "Toni Hoberecht,Krista Kezbers",
    "host_name": "University of Oklahoma",
    "latitude": 36.101228,
    "start_date": "2019-05-30"
  },
  {
    "end_date": "2019-05-31",
    "url": "https://starescomp.github.io/2019-05-30-standrews/",
    "country": "GB",
    "instructors": "Alexander Konovalov,Isla Barnard,Leighton Pritchard,Michael Torpey",
    "venue": "University of St Andrews",
    "longitude": -2.793957,
    "slug": "2019-05-30-standrews",
    "tag_name": "SWC",
    "helpers": null,
    "host_name": "University of St. Andrews",
    "latitude": 56.339308,
    "start_date": "2019-05-30"
  },
  {
    "end_date": "2019-05-31",
    "url": "https://nmcarpentries.github.io/2019-05-30-unm/",
    "country": "US",
    "instructors": "Jon Wheeler,Karl Benedict",
    "venue": "University of New Mexico",
    "longitude": -106.619838,
    "slug": "2019-05-30-unm",
    "tag_name": "SWC",
    "helpers": null,
    "host_name": "University of New Mexico",
    "latitude": 35.085714,
    "start_date": "2019-05-30"
  },
  {
    "end_date": "2019-06-04",
    "url": "https://fpsom.github.io/2019-06-03-elixir-athens-eie",
    "country": "GR",
    "instructors": "Thor Wikfeldt,Fotis Psomopoulos",
    "venue": "National Hellenic Research Foundation",
    "longitude": 23.745407,
    "slug": "2019-06-03-elixir-athens-eie",
    "tag_name": "SWC",
    "helpers": null,
    "host_name": "ELIXIR-UK",
    "latitude": 37.973198,
    "start_date": "2019-06-03"
  },
  {
    "end_date": "2019-06-07",
    "url": "https://idi-bd2k.github.io/2019-06-03-puerto_rico-R/",
    "country": "PR",
    "instructors": "Humberto Ortiz-Zuazaga,Sofia Melendez-Cartagena",
    "venue": "University of Puerto Rico",
    "longitude": -66.0463582,
    "slug": "2019-06-03-puerto_rico-R",
    "tag_name": "SWC",
    "helpers": null,
    "host_name": "University of Puerto Rico",
    "latitude": 18.4044218,
    "start_date": "2019-06-03"
  },
  {
    "end_date": "2019-06-05",
    "url": "https://epfllibrary.github.io/2019-06-04-epfl",
    "country": "CH",
    "instructors": "Jérôme Chaptinel,Raphaël Grolimund,Antoine Masson,Mathilde Panes",
    "venue": "Ecole Polytechnique Fédérale de Lausanne",
    "longitude": 6.568473,
    "slug": "2019-06-04-epfl",
    "tag_name": "SWC",
    "helpers": "Ludovic Bonivento,C_cile Hardebolle",
    "host_name": "École polytechnique fédérale de Lausanne",
    "latitude": 46.518445,
    "start_date": "2019-06-04"
  },
  {
    "end_date": "2019-06-07",
    "url": "https://mariakotouza.github.io/2019-06-06-elixir-bsc/",
    "country": "ES",
    "instructors": "Maria Kotouza,Joaquín Morís",
    "venue": "Elixir-CNIO",
    "longitude": -3.696091,
    "slug": "2019-06-06-elixir-bsc",
    "tag_name": "SWC",
    "helpers": null,
    "host_name": "ELIXIR-UK",
    "latitude": 40.476688,
    "start_date": "2019-06-06"
  },
  {
    "end_date": "2019-06-12",
    "url": "https://bio-swc-bne.github.io/2019-06-11-GriffithUni-R/",
    "country": "AU",
    "instructors": "Amanda Miotto",
    "venue": "Griffith University",
    "longitude": 153.052425,
    "slug": "2019-06-11-Griffith",
    "tag_name": "SWC",
    "helpers": null,
    "host_name": "Griffith University",
    "latitude": -27.552941,
    "start_date": "2019-06-11"
  },
  {
    "end_date": "2019-06-14",
    "url": "https://nesclic.github.io/2019-06-13-dartmouth/",
    "country": "US",
    "instructors": "JIANJUN HUA,James Adams,Lora Leligdon,Pamela Bagley,Stephen Gaughan",
    "venue": "Dartmouth College",
    "longitude": -72.289101,
    "slug": "2019-06-13-dartmouth",
    "tag_name": "SWC",
    "helpers": null,
    "host_name": "Dartmouth College",
    "latitude": 43.705787,
    "start_date": "2019-06-13"
  },
  {
    "end_date": "2019-06-19",
    "url": "https://zpainter.github.io/2019-06-18-stanford/",
    "country": "US",
    "instructors": "Max Czapanskiy,Melissa Ko,Zac Painter,Satoshi Yokota",
    "venue": "Stanford University",
    "longitude": -122.165749,
    "slug": "2019-06-18-stanford",
    "tag_name": "SWC",
    "helpers": "Chao Jiang,Lorraine Ling",
    "host_name": "Stanford University",
    "latitude": 37.437519,
    "start_date": "2019-06-18"
  },
  {
    "end_date": "2019-06-25",
    "url": "https://fgacenga.github.io/2019-06-24-usq",
    "country": "AU",
    "instructors": "Francis Gacenga,Richard Young",
    "venue": "University of Southern Queensland",
    "longitude": 151.935113,
    "slug": "2019-06-24-usq",
    "tag_name": "SWC",
    "helpers": null,
    "host_name": "University of Southern Queensland",
    "latitude": -27.606578,
    "start_date": "2019-06-24"
  },
  {
    "end_date": "2019-07-02",
    "url": "https://umswc.github.io/2019-07-1-umich/",
    "country": "US",
    "instructors": "Joshua Stough,Begum Topcuoglu,Kelly Sovacool",
    "venue": "University of Michigan",
    "longitude": -83.73823,
    "slug": "2019-07-01-umich",
    "tag_name": "SWC",
    "helpers": "Ariangela Kozik,Katherine McLean",
    "host_name": "University of Michigan",
    "latitude": 42.276616,
    "start_date": "2019-07-01"
  },
  {
    "end_date": "2019-07-05",
    "url": "https://elixir-iib-training.github.io/2019-07-05-naples-shell-git-python/",
    "country": "IT",
    "instructors": "Vincenza Colonna",
    "venue": "Biblioteca - National Research Council",
    "longitude": 14.22483,
    "slug": "2019-07-05-naples-shell-git-python",
    "tag_name": "SWC",
    "helpers": null,
    "host_name": "Consiglio Nazionale delle Ricerche",
    "latitude": 40.85459,
    "start_date": "2019-07-03"
  },
  {
    "end_date": "2019-08-08",
    "url": "https://bio-swc-bne.github.io/2019-08-06-GriffithUni-Python/",
    "country": "AU",
    "instructors": "Amanda Miotto",
    "venue": "Griffith University",
    "longitude": 153.378868,
    "slug": "2019-08-06-Griffith",
    "tag_name": "SWC",
    "helpers": null,
    "host_name": "Griffith University",
    "latitude": -27.960345,
    "start_date": "2019-08-06"
  },
  {
    "end_date": "2019-10-03",
    "url": "https://fgacenga.github.io/2019-10-02-usq/",
    "country": "AU",
    "instructors": "Francis Gacenga,Richard Young",
    "venue": "University of Southern Queensland",
    "longitude": 152.907227,
    "slug": "2019-10-02-usq",
    "tag_name": "SWC",
    "helpers": null,
    "host_name": "University of Southern Queensland",
    "latitude": -27.68401,
    "start_date": "2019-10-02"
  },
  {
    "end_date": "2019-10-17",
    "url": "https://bio-swc-bne.github.io/2019-10-16-GriffithUni-R/",
    "country": "AU",
    "instructors": "Amanda Miotto",
    "venue": "Griffith University",
    "longitude": 153.378868,
    "slug": "2019-10-16-Griffith",
    "tag_name": "SWC",
    "helpers": null,
    "host_name": "Griffith University",
    "latitude": -27.960345,
    "start_date": "2019-10-16"
  },
  {
    "end_date": "2019-11-22",
    "url": "https://bio-swc-bne.github.io/2019-11-20-GriffithUni-Python/",
    "country": "AU",
    "instructors": "Amanda Miotto",
    "venue": "Griffith University",
    "longitude": 153.052425,
    "slug": "2019-11-20-Griffith",
    "tag_name": "SWC",
    "helpers": null,
    "host_name": "Griffith University",
    "latitude": -27.552941,
    "start_date": "2019-11-20"
  }
]
