[
  {
    "instructors": "Nelly Sélem",
    "end_date": "2020-05-14",
    "url": "https://nselem.github.io/2020-04-14-posgraduados-campeche/",
    "country": "MX",
    "curriculum": "swc-python",
    "venue": "Colegio de Postgraduados Campus Campeche",
    "longitude": -90.54,
    "slug": "2020-04-14-posgraduados-campeche",
    "tag_name": "SWC",
    "helpers": "Abraham Avelar",
    "host_name": "Langebio",
    "latitude": 19.49,
    "start_date": "2020-04-14"
  },
  {
    "instructors": "Kim Keogh",
    "end_date": "2020-05-01",
    "url": "https://gu-eresearch.github.io/2020-03-23-GriffithUni-Python/",
    "country": "AU",
    "curriculum": "swc-python",
    "venue": "Griffith University",
    "longitude": -27.552941,
    "slug": "2020-03-23-GriffithUni-Python",
    "tag_name": "SWC",
    "helpers": null,
    "host_name": "Griffith University",
    "latitude": -27.552941,
    "start_date": "2020-04-27"
  },
  {
    "instructors": "Aleksandra Singer,Charles Guan",
    "end_date": "2020-04-29",
    "url": "https://charlesincharge.github.io/2020-04-28-genentech",
    "country": "US",
    "curriculum": "swc-plotting",
    "venue": "Genentech",
    "longitude": -122.377961,
    "slug": "2020-04-28-genentech",
    "tag_name": "SWC",
    "helpers": null,
    "host_name": "Genentech",
    "latitude": 37.656769,
    "start_date": "2020-04-28"
  },
  {
    "instructors": "Erin Graham,Stéphane Guillou,Nicko Matigian,Kevin Bairos-Novak",
    "end_date": "2020-05-01",
    "url": "https://qcif-training.github.io/2020-04-30-QCIF-R/",
    "country": "AU",
    "curriculum": "swc-reproducible-science",
    "venue": "University of Queensland",
    "longitude": 153.014486,
    "slug": "2020-04-30-QCIF-R",
    "tag_name": "SWC",
    "helpers": null,
    "host_name": "Queensland Cyber Infrastructure Foundation",
    "latitude": -27.49649,
    "start_date": "2020-04-30"
  },
  {
    "instructors": "Phillip Doehle",
    "end_date": "2020-05-12",
    "url": "https://osu-carpentry.github.io/2020-05-11-okstate/",
    "country": "US",
    "curriculum": "swc-plotting",
    "venue": "Oklahoma State University",
    "longitude": 36.122987,
    "slug": "2020-05-11-okstate",
    "tag_name": "SWC",
    "helpers": "Kay BJornen",
    "host_name": "Oklahoma State University",
    "latitude": -97.069612,
    "start_date": "2020-05-11"
  },
  {
    "instructors": null,
    "end_date": "2020-05-21",
    "url": "https://sa2c.github.io/2020-05-20-swansea",
    "country": "GB",
    "curriculum": "swc-python",
    "venue": "Singleton Campus, Swansea University",
    "longitude": -3.982323,
    "slug": "2020-05-20-swansea",
    "tag_name": "SWC",
    "helpers": null,
    "host_name": "Swansea University",
    "latitude": 51.609054,
    "start_date": "2020-05-20"
  },
  {
    "instructors": "Amanda Miotto",
    "end_date": "2020-05-28",
    "url": "https://gu-eresearch.github.io/2020-05-26-GriffithUni-Python/",
    "country": "AU",
    "curriculum": "swc-python",
    "venue": "Griffith University",
    "longitude": -27.552941,
    "slug": "2020-05-26-GriffithUni-Python",
    "tag_name": "SWC",
    "helpers": null,
    "host_name": "Griffith University",
    "latitude": -27.552941,
    "start_date": "2020-05-26"
  },
  {
    "instructors": "Andrew Battista,Billy Broderick",
    "end_date": "2020-05-29",
    "url": "https://nyu-dataservices.github.io/2020-05-28-nyu/",
    "country": "US",
    "curriculum": "swc-plotting",
    "venue": "New York University",
    "longitude": -73.999364,
    "slug": "2020-05-28-nyu",
    "tag_name": "SWC",
    "helpers": "Vicky Steeves,Casey Hampsey",
    "host_name": "New York University",
    "latitude": 40.7294556,
    "start_date": "2020-05-28"
  },
  {
    "instructors": "Chandler Becker,Randal McDermott,Andrew Reid,Andrea Medina-Smith",
    "end_date": "2020-06-01",
    "url": "https://pages.nist.gov/2020-05-29-nist/",
    "country": "US",
    "curriculum": "swc-plotting",
    "venue": "NIST",
    "longitude": -77.216351,
    "slug": "2020-05-29-nist",
    "tag_name": "SWC",
    "helpers": "Daniel Wheeler",
    "host_name": "National Institute of Standards and Technology",
    "latitude": 39.1322,
    "start_date": "2020-05-29"
  },
  {
    "instructors": "Kristina Hettne,Matthijs de Zwaan,Alice Doek",
    "end_date": "2020-06-09",
    "url": "https://mtthsdzwn.github.io/2020-06-08-leiden/",
    "country": "NL",
    "curriculum": "mix-and-match",
    "venue": "Universitaire bibliotheken Leiden",
    "longitude": 4.48145,
    "slug": "2020-06-08-leiden",
    "tag_name": "SWC",
    "helpers": "Henriette Reerink",
    "host_name": "Vrije Universiteit",
    "latitude": 52.15731,
    "start_date": "2020-06-08"
  },
  {
    "instructors": "Amanda Miotto",
    "end_date": "2020-07-08",
    "url": "https://gu-eresearch.github.io/2020-07-06-GriffithUni-Python/",
    "country": "AU",
    "curriculum": "swc-python",
    "venue": "Griffith University",
    "longitude": -27.552941,
    "slug": "2020-07-06-GriffithUni-Python",
    "tag_name": "SWC",
    "helpers": null,
    "host_name": "Griffith University",
    "latitude": -27.552941,
    "start_date": "2020-07-06"
  },
  {
    "instructors": "Amanda Miotto",
    "end_date": "2020-08-19",
    "url": "https://gu-eresearch.github.io/2020-08-17-GriffithUni-Python/",
    "country": "AU",
    "curriculum": "swc-python",
    "venue": "Griffith University",
    "longitude": -27.552941,
    "slug": "2020-08-17-GriffithUni-Python",
    "tag_name": "SWC",
    "helpers": null,
    "host_name": "Griffith University",
    "latitude": -27.552941,
    "start_date": "2020-08-17"
  }
]
