[
  {
    "end_date": "2019-07-17",
    "url": "https://elixir-belgium.github.io/2019-04-16-BRU/",
    "country": "BE",
    "instructors": "Malvika Sharan,Stijn Van Hoey,Christof De Bo",
    "venue": "ELIXIR-Belgium Brussels",
    "longitude": 4.394176,
    "slug": "2019-04-16-BRU",
    "tag_name": "SWC",
    "helpers": null,
    "host_name": "ELIXIR-UK",
    "latitude": 50.824343,
    "start_date": "2019-04-16"
  },
  {
    "end_date": "2019-06-04",
    "url": "https://rbeagrie.github.io/2019-03-26-WIMM-Python/",
    "country": "GB",
    "instructors": "Robert Beagrie,Nicki GRAY",
    "venue": "MRC Weatherall Institute of Molecular Medicine",
    "longitude": -1.216999,
    "slug": "2019-03-26-WIMM-Python",
    "tag_name": "SWC",
    "helpers": null,
    "host_name": "University of Oxford",
    "latitude": 51.76337,
    "start_date": "2019-05-14"
  },
  {
    "end_date": "2019-06-01",
    "url": "https://gboushey.github.io/2019-05-29-UCSF-R/",
    "country": "US",
    "instructors": "Karla Lindquist,Angelo Pelonero,Geoffrey Boushey",
    "venue": "University of California, San Francisco",
    "longitude": 122.3944,
    "slug": "2019-05-29-UCSF-R",
    "tag_name": "SWC",
    "helpers": null,
    "host_name": "University of California San Francisco",
    "latitude": 37.7938,
    "start_date": "2019-05-29"
  },
  {
    "end_date": "2019-06-04",
    "url": "https://fpsom.github.io/2019-06-03-elixir-athens-eie",
    "country": "GR",
    "instructors": "Thor Wikfeldt,Fotis Psomopoulos",
    "venue": "National Hellenic Research Foundation",
    "longitude": 23.745407,
    "slug": "2019-06-03-elixir-athens-eie",
    "tag_name": "SWC",
    "helpers": null,
    "host_name": "ELIXIR-UK",
    "latitude": 37.973198,
    "start_date": "2019-06-03"
  },
  {
    "end_date": "2019-06-07",
    "url": "https://idi-bd2k.github.io/2019-06-03-puerto_rico-R/",
    "country": "PR",
    "instructors": "Humberto Ortiz-Zuazaga,Sofia Melendez-Cartagena",
    "venue": "University of Puerto Rico",
    "longitude": -66.0463582,
    "slug": "2019-06-03-puerto_rico-R",
    "tag_name": "SWC",
    "helpers": null,
    "host_name": "University of Puerto Rico",
    "latitude": 18.4044218,
    "start_date": "2019-06-03"
  },
  {
    "end_date": "2019-06-05",
    "url": "https://epfllibrary.github.io/2019-06-04-epfl",
    "country": "CH",
    "instructors": "Jérôme Chaptinel,Raphaël Grolimund,Antoine Masson,Mathilde Panes",
    "venue": "Ecole Polytechnique Fédérale de Lausanne",
    "longitude": 6.568473,
    "slug": "2019-06-04-epfl",
    "tag_name": "SWC",
    "helpers": "Ludovic Bonivento,C_cile Hardebolle",
    "host_name": "École polytechnique fédérale de Lausanne",
    "latitude": 46.518445,
    "start_date": "2019-06-04"
  },
  {
    "end_date": "2019-06-06",
    "url": "https://pages.nist.gov/2019-06-05-nist/",
    "country": "US",
    "instructors": "Andrew Reid,Trevor Keller,Juan Fung,Justin Senseney",
    "venue": "Building 215/Room C103",
    "longitude": -77.2185498,
    "slug": "2019-06-05-nist",
    "tag_name": "SWC",
    "helpers": "Daniel Wheeler,Jonathan Guyer",
    "host_name": "National Institute of Standards and Technology",
    "latitude": 39.1321944,
    "start_date": "2019-06-05"
  },
  {
    "end_date": "2019-06-07",
    "url": "https://mariakotouza.github.io/2019-06-06-elixir-bsc/",
    "country": "ES",
    "instructors": "Maria Kotouza,Joaquín Morís",
    "venue": "Elixir-CNIO",
    "longitude": -3.696091,
    "slug": "2019-06-06-elixir-bsc",
    "tag_name": "SWC",
    "helpers": null,
    "host_name": "ELIXIR-UK",
    "latitude": 40.476688,
    "start_date": "2019-06-06"
  },
  {
    "end_date": "2019-06-11",
    "url": "https://hpcarcher.github.io/2019-06-10-york/",
    "country": "GB",
    "instructors": "Juan Herrera",
    "venue": "ARCHER-SSI Software Carpentry at The University of York",
    "longitude": -1.046603,
    "slug": "2019-06-10-york",
    "tag_name": "SWC",
    "helpers": null,
    "host_name": "University of York",
    "latitude": 53.9480435,
    "start_date": "2019-06-10"
  },
  {
    "end_date": "2019-06-12",
    "url": "https://bio-swc-bne.github.io/2019-06-11-GriffithUni-R/",
    "country": "AU",
    "instructors": "Amanda Miotto",
    "venue": "Griffith University",
    "longitude": 153.052425,
    "slug": "2019-06-11-Griffith",
    "tag_name": "SWC",
    "helpers": null,
    "host_name": "Griffith University",
    "latitude": -27.552941,
    "start_date": "2019-06-11"
  },
  {
    "end_date": "2019-06-12",
    "url": "https://nesclic.github.io/2019-06-11-Mount-Holyoke/",
    "country": "US",
    "instructors": "Thea Atwood,JAMES BURKE,Sarah Oelker",
    "venue": "Mount Holyoke College",
    "longitude": -72.575286,
    "slug": "2019-06-11-Mount-Holyoke",
    "tag_name": "SWC",
    "helpers": "Thea Atwood,JAMES BURKE,Ann Kardos,Sarah Oelker",
    "host_name": "Mount Holyoke College",
    "latitude": 42.257249,
    "start_date": "2019-06-11"
  },
  {
    "end_date": "2019-06-14",
    "url": "https://nesclic.github.io/2019-06-13-dartmouth/",
    "country": "US",
    "instructors": "JIANJUN HUA,James Adams,Lora Leligdon,Pamela Bagley,Stephen Gaughan",
    "venue": "Dartmouth College",
    "longitude": -72.289101,
    "slug": "2019-06-13-dartmouth",
    "tag_name": "SWC",
    "helpers": null,
    "host_name": "Dartmouth College",
    "latitude": 43.705787,
    "start_date": "2019-06-13"
  },
  {
    "end_date": "2019-06-21",
    "url": "https://erdc.github.io/2019-06-17-erdc-swc/",
    "country": "US",
    "instructors": "Drew Loney,Chris Kees",
    "venue": "US Army ERDC",
    "longitude": -90.877884,
    "slug": "2019-06-17-erdc-swc",
    "tag_name": "SWC",
    "helpers": null,
    "host_name": "US Army Engineer Research and Development Center (ERDC)",
    "latitude": 32.352646,
    "start_date": "2019-06-17"
  },
  {
    "end_date": "2019-06-19",
    "url": "https://zpainter.github.io/2019-06-18-stanford/",
    "country": "US",
    "instructors": "Max Czapanskiy,Melissa Ko,Zac Painter,Satoshi Yokota",
    "venue": "Stanford University",
    "longitude": -122.165749,
    "slug": "2019-06-18-stanford",
    "tag_name": "SWC",
    "helpers": "Chao Jiang,Lorraine Ling",
    "host_name": "Stanford University",
    "latitude": 37.437519,
    "start_date": "2019-06-18"
  },
  {
    "end_date": "2019-06-19",
    "url": "https://edcarp.github.io/2019-06-19-edinburgh-git/",
    "country": "GB",
    "instructors": "Mike Jackson",
    "venue": "University of Ediniburgh",
    "longitude": -3.173319,
    "slug": "2019-06-19-edinburgh-git",
    "tag_name": "SWC",
    "helpers": "Edward Wallace",
    "host_name": "University of Edinburgh",
    "latitude": 55.921807,
    "start_date": "2019-06-19"
  },
  {
    "end_date": "2019-06-21",
    "url": "https://uci-libraries.github.io/2019-06-20-UCI/",
    "country": "US",
    "instructors": "Danielle Kane,Madelynn Dickerson,Mitchell Brown",
    "venue": "UC Irvine Libraries",
    "longitude": -117.8411,
    "slug": "2019-06-20-UCI",
    "tag_name": "SWC",
    "helpers": "Danielle Kane,Madelynn Dickerson,Mitchell Brown",
    "host_name": "University of California Irvine",
    "latitude": 33.647111,
    "start_date": "2019-06-20"
  },
  {
    "end_date": "2019-06-25",
    "url": "https://fgacenga.github.io/2019-06-24-usq",
    "country": "AU",
    "instructors": "Francis Gacenga,Richard Young",
    "venue": "University of Southern Queensland",
    "longitude": 151.935113,
    "slug": "2019-06-24-usq",
    "tag_name": "SWC",
    "helpers": null,
    "host_name": "University of Southern Queensland",
    "latitude": -27.606578,
    "start_date": "2019-06-24"
  },
  {
    "end_date": "2019-06-26",
    "url": "https://jtande.github.io/2019-06-25-ColbyCollege/",
    "country": "US",
    "instructors": "Jacob Fosso Tande",
    "venue": "Colby College",
    "longitude": -69.63131,
    "slug": "2019-06-25-ColbyCollege",
    "tag_name": "SWC",
    "helpers": null,
    "host_name": "Colby College",
    "latitude": 44.552841,
    "start_date": "2019-06-25"
  },
  {
    "end_date": "2019-07-02",
    "url": "https://umswc.github.io/2019-07-1-umich/",
    "country": "US",
    "instructors": "Joshua Stough,Begum Topcuoglu,Kelly Sovacool",
    "venue": "University of Michigan",
    "longitude": -83.73823,
    "slug": "2019-07-01-umich",
    "tag_name": "SWC",
    "helpers": "Ariangela Kozik,Katherine McLean",
    "host_name": "University of Michigan",
    "latitude": 42.276616,
    "start_date": "2019-07-01"
  },
  {
    "end_date": "2019-07-05",
    "url": "https://elixir-iib-training.github.io/2019-07-05-naples-shell-git-python/",
    "country": "IT",
    "instructors": "Vincenza Colonna",
    "venue": "Biblioteca - National Research Council",
    "longitude": 14.22483,
    "slug": "2019-07-05-naples-shell-git-python",
    "tag_name": "SWC",
    "helpers": null,
    "host_name": "Consiglio Nazionale delle Ricerche",
    "latitude": 40.85459,
    "start_date": "2019-07-03"
  },
  {
    "end_date": "2019-08-08",
    "url": "https://bio-swc-bne.github.io/2019-08-06-GriffithUni-Python/",
    "country": "AU",
    "instructors": "Amanda Miotto",
    "venue": "Griffith University",
    "longitude": 153.378868,
    "slug": "2019-08-06-Griffith",
    "tag_name": "SWC",
    "helpers": null,
    "host_name": "Griffith University",
    "latitude": -27.960345,
    "start_date": "2019-08-06"
  },
  {
    "end_date": "2019-10-03",
    "url": "https://fgacenga.github.io/2019-10-02-usq/",
    "country": "AU",
    "instructors": "Francis Gacenga,Richard Young",
    "venue": "University of Southern Queensland",
    "longitude": 152.907227,
    "slug": "2019-10-02-usq",
    "tag_name": "SWC",
    "helpers": null,
    "host_name": "University of Southern Queensland",
    "latitude": -27.68401,
    "start_date": "2019-10-02"
  },
  {
    "end_date": "2019-10-17",
    "url": "https://bio-swc-bne.github.io/2019-10-16-GriffithUni-R/",
    "country": "AU",
    "instructors": "Amanda Miotto",
    "venue": "Griffith University",
    "longitude": 153.378868,
    "slug": "2019-10-16-Griffith",
    "tag_name": "SWC",
    "helpers": null,
    "host_name": "Griffith University",
    "latitude": -27.960345,
    "start_date": "2019-10-16"
  },
  {
    "end_date": "2019-11-22",
    "url": "https://bio-swc-bne.github.io/2019-11-20-GriffithUni-Python/",
    "country": "AU",
    "instructors": "Amanda Miotto",
    "venue": "Griffith University",
    "longitude": 153.052425,
    "slug": "2019-11-20-Griffith",
    "tag_name": "SWC",
    "helpers": null,
    "host_name": "Griffith University",
    "latitude": -27.552941,
    "start_date": "2019-11-20"
  }
]
