[
  {
    "end_date": "2019-07-17",
    "url": "https://elixir-belgium.github.io/2019-04-16-BRU/",
    "country": "BE",
    "instructors": "Malvika Sharan,Stijn Van Hoey,Christof De Bo",
    "venue": "ELIXIR-Belgium Brussels",
    "longitude": 4.394176,
    "slug": "2019-04-16-BRU",
    "tag_name": "SWC",
    "helpers": null,
    "host_name": "ELIXIR-UK",
    "latitude": 50.824343,
    "start_date": "2019-04-16"
  },
  {
    "end_date": "2019-07-24",
    "url": "https://heatherciallella.github.io/2019-07-23-rutgers_cmd",
    "country": "US",
    "instructors": "Heather Ciallella,Liam Sharp,Daniel Russo,Sunil Shende",
    "venue": "Rutgers University - Camden",
    "longitude": -75.118828,
    "slug": "2019-07-23-rutgers_cmd",
    "tag_name": "SWC",
    "helpers": "Ruchi Lohia,Linlin Zhao",
    "host_name": "Rutgers University - Camden",
    "latitude": 39.94521,
    "start_date": "2019-07-23"
  },
  {
    "end_date": "2019-07-25",
    "url": "https://qcif-training.github.io/2019-07-24-JCU-Python/",
    "country": "AU",
    "instructors": "Daniel Baird",
    "venue": "James Cook University",
    "longitude": 145.686524,
    "slug": "2019-07-24-JCU-Python",
    "tag_name": "SWC",
    "helpers": null,
    "host_name": "Queensland Cyber Infrastructure Foundation",
    "latitude": -16.818504,
    "start_date": "2019-07-24"
  },
  {
    "end_date": "2019-07-25",
    "url": "https://mq-software-carpentry.github.io/2019-07-24-intro-to-python/",
    "country": "AU",
    "instructors": "Richard Miller,James Tocknell",
    "venue": "Macquarie University",
    "longitude": 151.113265,
    "slug": "2019-07-24-macquarie",
    "tag_name": "SWC",
    "helpers": null,
    "host_name": "Macquarie University",
    "latitude": -33.774858,
    "start_date": "2019-07-24"
  },
  {
    "end_date": "2019-07-24",
    "url": "https://jimmccartney.github.io/2019-07-24-uark/",
    "country": "US",
    "instructors": "Lora Lennertz,James McCartney",
    "venue": "University of Arkansas",
    "longitude": -94.168058,
    "slug": "2019-07-24-uark",
    "tag_name": "SWC",
    "helpers": "Michael Gibbs,Joe Paparo,Stephanie Pierce,Nick Salonen,Mary Leverance",
    "host_name": "University of Arkansas",
    "latitude": 36.042345,
    "start_date": "2019-07-24"
  },
  {
    "end_date": "2019-07-30",
    "url": "http://oulib-swc.github.io/2019-07-29-ou-swc-ouhsc",
    "country": "US",
    "instructors": "Claire Curry,Jim Ferguson,Dawn Nekorchuk",
    "venue": "University of Oklahoma Health Sciences Center Robert M. Bird Library",
    "longitude": -97.494256,
    "slug": "2019-07-29-ou-swc-ouhsc",
    "tag_name": "SWC",
    "helpers": "Mahbobeh Lesan,Amanda Schilling,Rebecca Silver",
    "host_name": "University of Oklahoma",
    "latitude": 35.479536,
    "start_date": "2019-07-29"
  },
  {
    "end_date": "2019-08-08",
    "url": "https://bio-swc-bne.github.io/2019-08-06-GriffithUni-Python/",
    "country": "AU",
    "instructors": "Amanda Miotto",
    "venue": "Griffith University",
    "longitude": 153.378868,
    "slug": "2019-08-06-Griffith",
    "tag_name": "SWC",
    "helpers": null,
    "host_name": "Griffith University",
    "latitude": -27.960345,
    "start_date": "2019-08-06"
  },
  {
    "end_date": "2019-08-13",
    "url": "https://saandrewsLANL.github.io/2019-08-08-LANL",
    "country": "FI",
    "instructors": "Andy Fraser,Cameron Bates,Austin McCartney",
    "venue": "Los Alamos National Laboratory",
    "longitude": null,
    "slug": "2019-08-08-LANL",
    "tag_name": "SWC",
    "helpers": "Stephen Andrews,Chris Malone",
    "host_name": "Los Alamos National Laboratory",
    "latitude": null,
    "start_date": "2019-08-08"
  },
  {
    "end_date": "2019-08-14",
    "url": "https://nmcarpentries.github.io/2019-08-13-nmsu/",
    "country": "US",
    "instructors": "Shelley Knuth,Diana Dugas",
    "venue": "New Mexico State University",
    "longitude": -106.751097,
    "slug": "2019-08-13-nmsu",
    "tag_name": "SWC",
    "helpers": null,
    "host_name": "New Mexico State University",
    "latitude": 32.282887,
    "start_date": "2019-08-13"
  },
  {
    "end_date": "2019-08-20",
    "url": "https://vuw-research-computing.github.io/2019-08-19-vuw/",
    "country": "NZ",
    "instructors": "Andre Geldenhuis,Wes Harrell",
    "venue": "VUW Kelburn Campus",
    "longitude": 174.767541,
    "slug": "2019-08-19-VUW",
    "tag_name": "SWC",
    "helpers": "Matt Plummer",
    "host_name": "Victoria University of Wellington",
    "latitude": -41.289846,
    "start_date": "2019-08-19"
  },
  {
    "end_date": "2019-08-23",
    "url": "https://smeehan12.github.io/2019-08-19-usatlas-computing-bootcamp",
    "country": "US",
    "instructors": "Daniel Guest,Henry Schreiber,Samuel Meehan,Dan Guest,Matthew Feickert,Giordon Stark,Lukas Heinrich,Nils Krumnack,Henry Schreiner,Karol Krizka,Adam Parker,Kunal Marwaha,Kelly Rowland",
    "venue": "Lawrence Berkeley National Laboratory",
    "longitude": -122.25,
    "slug": "2019-08-19-usatlas-computing-bootcamp",
    "tag_name": "SWC",
    "helpers": "Shih Chieh Hsu,Zachary Marshall",
    "host_name": "Lawrence Berkeley National Laboratory",
    "latitude": 37.8759,
    "start_date": "2019-08-19"
  },
  {
    "end_date": "2019-08-20",
    "url": "https://vanderbilt-data-science.github.io/2019-08-19-vanderbilt/",
    "country": "US",
    "instructors": "Eric Appelt,Meredith Broadway,Lindsey Fox,Elisabeth Shook",
    "venue": "Buttrick Hall 102",
    "longitude": -86.8047542,
    "slug": "2019-08-19-vanderbilt",
    "tag_name": "SWC",
    "helpers": "Jamen McGranahan,Jesse Spencer-Smith",
    "host_name": "Vanderbilt University",
    "latitude": 36.1458157,
    "start_date": "2019-08-19"
  },
  {
    "end_date": "2019-08-22",
    "url": "https://odu-rcs.github.io/2019-08-21-odu/",
    "country": "US",
    "instructors": "Wirawan Purwanto,Terry Stilwell,Dan Barshis,Sophie Clayton",
    "venue": "Old Dominion University",
    "longitude": -76.300612,
    "slug": "2019-08-21-odu",
    "tag_name": "SWC",
    "helpers": null,
    "host_name": "Old Dominion University",
    "latitude": 36.884672,
    "start_date": "2019-08-21"
  },
  {
    "end_date": "2019-09-05",
    "url": "https://edcarp.github.io/2019-09-04-edinburgh-swc/",
    "country": "GB",
    "instructors": "David McKain",
    "venue": "University of Edinburgh",
    "longitude": -3.173591,
    "slug": "2019-09-04-edinburgh-swc",
    "tag_name": "SWC",
    "helpers": null,
    "host_name": "University of Edinburgh",
    "latitude": 55.921711,
    "start_date": "2019-09-04"
  },
  {
    "end_date": "2019-10-03",
    "url": "https://fgacenga.github.io/2019-10-02-usq/",
    "country": "AU",
    "instructors": "Francis Gacenga,Richard Young",
    "venue": "University of Southern Queensland",
    "longitude": 152.907227,
    "slug": "2019-10-02-usq",
    "tag_name": "SWC",
    "helpers": null,
    "host_name": "University of Southern Queensland",
    "latitude": -27.68401,
    "start_date": "2019-10-02"
  },
  {
    "end_date": "2019-10-17",
    "url": "https://bio-swc-bne.github.io/2019-10-16-GriffithUni-R/",
    "country": "AU",
    "instructors": "Amanda Miotto",
    "venue": "Griffith University",
    "longitude": 153.378868,
    "slug": "2019-10-16-Griffith",
    "tag_name": "SWC",
    "helpers": null,
    "host_name": "Griffith University",
    "latitude": -27.960345,
    "start_date": "2019-10-16"
  },
  {
    "end_date": "2019-10-18",
    "url": "https://malvikasharan.github.io/2019-10-16-heidelberg/",
    "country": "DE",
    "instructors": "Malvika Sharan,Toby Hodges,Thomas Schwarzl,Mike Smith,Holger Dinkel,Frank Thommen",
    "venue": "Computing Skills For Reproducible Research: Software Carpentry - EMBL, Heidelberg",
    "longitude": 8.710757,
    "slug": "2019-10-16-heidelberg",
    "tag_name": "SWC",
    "helpers": "Thea Van Rossum,Georg Zeller",
    "host_name": "European Molecular Biology Laboratory",
    "latitude": 49.38406,
    "start_date": "2019-10-16"
  },
  {
    "end_date": "2019-11-22",
    "url": "https://bio-swc-bne.github.io/2019-11-20-GriffithUni-Python/",
    "country": "AU",
    "instructors": "Amanda Miotto",
    "venue": "Griffith University",
    "longitude": 153.052425,
    "slug": "2019-11-20-Griffith",
    "tag_name": "SWC",
    "helpers": null,
    "host_name": "Griffith University",
    "latitude": -27.552941,
    "start_date": "2019-11-20"
  }
]
