[
  {
    "instructors": "Teddy Thomas,Alan Crosswell",
    "end_date": "2019-08-27",
    "url": "https://columbiaswc.github.io/2019-08-26-columbia-section-1/",
    "country": "US",
    "curriculum": "swc-python",
    "venue": "Columbia Foundations for Research Computing Bootcamp (Python)",
    "longitude": 73.9626,
    "slug": "2019-08-26-columbia-section-1",
    "tag_name": "SWC",
    "helpers": "Paul Bloom",
    "host_name": "Columbia University",
    "latitude": 40.8075,
    "start_date": "2019-08-26"
  },
  {
    "instructors": "Cesar Arias,Thomas Barraro,John Pellman",
    "end_date": "2019-08-27",
    "url": "https://columbiaswc.github.io/2019-08-26-columbia-section-2/",
    "country": "US",
    "curriculum": "swc-python",
    "venue": "Columbia Foundations for Research Computing Bootcamp (Python)",
    "longitude": 73.9626,
    "slug": "2019-08-26-columbia-section-2",
    "tag_name": "SWC",
    "helpers": null,
    "host_name": "Columbia University",
    "latitude": 40.8075,
    "start_date": "2019-08-26"
  },
  {
    "instructors": "Cesar Arias,John Pellman,Michael Weisner",
    "end_date": "2019-08-27",
    "url": "https://columbiaswc.github.io/2019-08-26-columbia-section-3",
    "country": "US",
    "curriculum": "swc-python",
    "venue": "Columbia Foundations for Research Computing Bootcamp (Python)",
    "longitude": 73.9626,
    "slug": "2019-08-26-columbia-section-3",
    "tag_name": "SWC",
    "helpers": "Jonathan Reeve",
    "host_name": "Columbia University",
    "latitude": 40.8075,
    "start_date": "2019-08-26"
  },
  {
    "instructors": "Michael Weisner,Satwinder Singh,Kitty Kay Chan,Wei Yin",
    "end_date": "2019-08-27",
    "url": "https://columbiaswc.github.io/2019-08-26-columbia-section-4",
    "country": "US",
    "curriculum": null,
    "venue": "Columbia Foundations for Research Computing Bootcamp (R)",
    "longitude": 73.9626,
    "slug": "2019-08-26-columbia-section-4",
    "tag_name": "SWC",
    "helpers": null,
    "host_name": "Columbia University",
    "latitude": 40.8075,
    "start_date": "2019-08-26"
  },
  {
    "instructors": "João Rodrigues,Byron Smith",
    "end_date": "2019-08-27",
    "url": "https://bsmith89.github.io/2019-08-26-genentech",
    "country": "US",
    "curriculum": "swc-python",
    "venue": "Genentech",
    "longitude": -122.37927,
    "slug": "2019-08-26-genentech",
    "tag_name": "SWC",
    "helpers": null,
    "host_name": "Genentech",
    "latitude": 37.65633,
    "start_date": "2019-08-26"
  },
  {
    "instructors": "Kai Blin,Nikoluas Sonnenschein",
    "end_date": "2019-08-30",
    "url": "https://biosustain.github.io/2019-08-26-software-carpentry",
    "country": "DK",
    "curriculum": "swc-other",
    "venue": "Technical University of Denmark",
    "longitude": 12.519819,
    "slug": "2019-08-26-software-carpentry",
    "tag_name": "SWC",
    "helpers": null,
    "host_name": "Technical University of Denmark",
    "latitude": 55.787892,
    "start_date": "2019-08-26"
  },
  {
    "instructors": "Matthias Liffers,David Benn",
    "end_date": "2019-08-28",
    "url": "https://davidbenncsiro.github.io/2019-08-27-adelaide/",
    "country": "AU",
    "curriculum": "swc-python",
    "venue": "University of Adelaide",
    "longitude": 138.6062,
    "slug": "2019-08-27-adelaide",
    "tag_name": "SWC",
    "helpers": "Josephine Gerlach,Sara King,Mikaela Lawrence",
    "host_name": "Australian Research Data Commons",
    "latitude": -34.9206,
    "start_date": "2019-08-27"
  },
  {
    "instructors": "Easton White",
    "end_date": "2019-08-30",
    "url": "https://erwhite1.github.io/2019-08-29-vermont/",
    "country": "US",
    "curriculum": "swc-es-r",
    "venue": "University of Vermont",
    "longitude": -73.193864,
    "slug": "2019-08-29-vermont",
    "tag_name": "SWC",
    "helpers": "Emily Malcolm-White",
    "host_name": "University of Vermont",
    "latitude": 44.475666,
    "start_date": "2019-08-29"
  },
  {
    "instructors": "Silvia Di Giorgio,Konrad Förstner,Tobias Schlauch",
    "end_date": "2019-09-04",
    "url": "https://zbmed.github.io/2019-09-03-Software-Carpentry-Cologne/",
    "country": "DE",
    "curriculum": "swc-python",
    "venue": "ZB MED",
    "longitude": 6.91646,
    "slug": "2019-09-03-Software-Carpentry-Cologne",
    "tag_name": "SWC",
    "helpers": "Eva Seidlmayer",
    "host_name": "ZB Med Information Centre for Life Sciences",
    "latitude": 50.92465,
    "start_date": "2019-09-03"
  },
  {
    "instructors": "David McKain",
    "end_date": "2019-09-05",
    "url": "https://edcarp.github.io/2019-09-04-edinburgh-swc/",
    "country": "GB",
    "curriculum": null,
    "venue": "University of Edinburgh",
    "longitude": -3.173591,
    "slug": "2019-09-04-edinburgh-swc",
    "tag_name": "SWC",
    "helpers": null,
    "host_name": "University of Edinburgh",
    "latitude": 55.921711,
    "start_date": "2019-09-04"
  },
  {
    "instructors": "Allison Gofman,Kyle Monahan",
    "end_date": "2019-09-07",
    "url": "https://tufts-carpentries.github.io/2019-09-06-tuftsUEP/",
    "country": "US",
    "curriculum": "swc-python",
    "venue": "Tisch Library, Tufts University",
    "longitude": -71.11884,
    "slug": "2019-09-06-tuftsUEP",
    "tag_name": "SWC",
    "helpers": "Kristin Lee",
    "host_name": "Tufts University",
    "latitude": 42.406172,
    "start_date": "2019-09-06"
  },
  {
    "instructors": "Noah Geraci,Katherine Koziar",
    "end_date": "2019-09-10",
    "url": "https://ucrlibrary.github.io/2019-09-09-ucr/",
    "country": "US",
    "curriculum": "swc-python",
    "venue": "University of California, Riverside",
    "longitude": -117.327482,
    "slug": "2019-09-09-ucr",
    "tag_name": "SWC",
    "helpers": "Swati Bhattacharyya",
    "host_name": "University of California, Riverside",
    "latitude": 33.972643,
    "start_date": "2019-09-09"
  },
  {
    "instructors": "Tobin Magle,Lauren Michael,Sarah Stevens,Matt Stone",
    "end_date": "2019-10-09",
    "url": "https://uw-madison-datascience.github.io/2019-09-11-uwmadison-swc/",
    "country": "US",
    "curriculum": "swc-python",
    "venue": "Software Carpentry @ UW-Madison",
    "longitude": -89.41338,
    "slug": "2019-09-11-uwmadison-swc",
    "tag_name": "SWC",
    "helpers": "Trisha Adamus,David Hoese,Tobin Magle,Stephen Meyer,Lauren Michael,Baptiste Mouginot,Matt Stone",
    "host_name": "University of Wisconsin - Madison",
    "latitude": 43.07609,
    "start_date": "2019-09-11"
  },
  {
    "instructors": "Nicolas Dintzner,Renato Alves",
    "end_date": "2019-09-26",
    "url": "https://4turesearchdata-carpentries.github.io/2019-09-25-eindhoven/",
    "country": "NL",
    "curriculum": "swc-python",
    "venue": "September 2019 SWC workshop @TU/Eindhoven",
    "longitude": 5.489574,
    "slug": "2019-09-25-eindhoven",
    "tag_name": "SWC",
    "helpers": null,
    "host_name": "Delft Univeristy of Technology",
    "latitude": 51.447497,
    "start_date": "2019-09-25"
  },
  {
    "instructors": "Francis Gacenga,Richard Young",
    "end_date": "2019-10-03",
    "url": "https://fgacenga.github.io/2019-10-02-usq/",
    "country": "AU",
    "curriculum": "swc-python",
    "venue": "University of Southern Queensland",
    "longitude": 152.907227,
    "slug": "2019-10-02-usq",
    "tag_name": "SWC",
    "helpers": null,
    "host_name": "University of Southern Queensland",
    "latitude": -27.68401,
    "start_date": "2019-10-02"
  },
  {
    "instructors": "Frances Wong,Amin Banihashemi,Ashwin Srinath,Elliott Sales de Andrade",
    "end_date": "2019-10-04",
    "url": "https://uoftcoders.github.io/2019-10-03-utoronto/",
    "country": "CA",
    "curriculum": "swc-python",
    "venue": "University of Toronto",
    "longitude": -79.393965,
    "slug": "2019-10-03-utoronto",
    "tag_name": "SWC",
    "helpers": null,
    "host_name": "University of Toronto",
    "latitude": 43.662195,
    "start_date": "2019-10-03"
  },
  {
    "instructors": "Amanda Miotto",
    "end_date": "2019-10-17",
    "url": "https://bio-swc-bne.github.io/2019-10-16-GriffithUni-R/",
    "country": "AU",
    "curriculum": "swc-r",
    "venue": "Griffith University",
    "longitude": 153.378868,
    "slug": "2019-10-16-Griffith",
    "tag_name": "SWC",
    "helpers": null,
    "host_name": "Griffith University",
    "latitude": -27.960345,
    "start_date": "2019-10-16"
  },
  {
    "instructors": "Malvika Sharan,Toby Hodges,Thomas Schwarzl,Mike Smith,Holger Dinkel,Frank Thommen",
    "end_date": "2019-10-18",
    "url": "https://malvikasharan.github.io/2019-10-16-heidelberg/",
    "country": "DE",
    "curriculum": "swc-other,swc-python",
    "venue": "Computing Skills For Reproducible Research: Software Carpentry - EMBL, Heidelberg",
    "longitude": 8.710757,
    "slug": "2019-10-16-heidelberg",
    "tag_name": "SWC",
    "helpers": "Thea Van Rossum,Georg Zeller",
    "host_name": "European Molecular Biology Laboratory",
    "latitude": 49.38406,
    "start_date": "2019-10-16"
  },
  {
    "instructors": "Stephanie Pierce,Michael Gibbs",
    "end_date": "2019-10-19",
    "url": "https://marieeriley.github.io/2019-10-18-uark/",
    "country": "US",
    "curriculum": "swc-python",
    "venue": "University of Arkansas",
    "longitude": -94.168058,
    "slug": "2019-10-18-uark",
    "tag_name": "SWC",
    "helpers": "James McCartney,Joe Paparo,Lora Lennertz,Nick Salonen",
    "host_name": "University of Arkansas",
    "latitude": 36.042345,
    "start_date": "2019-10-18"
  },
  {
    "instructors": "Amanda Miotto",
    "end_date": "2019-11-22",
    "url": "https://bio-swc-bne.github.io/2019-11-20-GriffithUni-Python/",
    "country": "AU",
    "curriculum": "swc-python",
    "venue": "Griffith University",
    "longitude": 153.052425,
    "slug": "2019-11-20-Griffith",
    "tag_name": "SWC",
    "helpers": null,
    "host_name": "Griffith University",
    "latitude": -27.552941,
    "start_date": "2019-11-20"
  }
]
