[
  {
    "end_date": "2019-07-17",
    "url": "https://elixir-belgium.github.io/2019-04-16-BRU/",
    "country": "BE",
    "instructors": "Malvika Sharan,Stijn Van Hoey,Christof De Bo",
    "venue": "ELIXIR-Belgium Brussels",
    "longitude": 4.394176,
    "slug": "2019-04-16-BRU",
    "tag_name": "SWC",
    "helpers": null,
    "host_name": "ELIXIR-UK",
    "latitude": 50.824343,
    "start_date": "2019-04-16"
  },
  {
    "end_date": "2019-07-05",
    "url": "https://elixir-iib-training.github.io/2019-07-05-naples-shell-git-python/",
    "country": "IT",
    "instructors": "Vincenza Colonna",
    "venue": "Biblioteca - National Research Council",
    "longitude": 14.22483,
    "slug": "2019-07-05-naples-shell-git-python",
    "tag_name": "SWC",
    "helpers": null,
    "host_name": "Consiglio Nazionale delle Ricerche",
    "latitude": 40.85459,
    "start_date": "2019-07-03"
  },
  {
    "end_date": "2019-07-09",
    "url": "https://4turesearchdata-carpentries.github.io/2019-07-08-delft/",
    "country": "NL",
    "instructors": "Kees den Heijer,Susan Branchett",
    "venue": "July 2019 SWC workshop @TU Delft",
    "longitude": 4.37113,
    "slug": "2019-07-08-delft",
    "tag_name": "SWC",
    "helpers": "Santosh Ilamparuthi,Heather Andrews,Nicolas Dintzner",
    "host_name": "Delft Univeristy of Technology",
    "latitude": 52.0015,
    "start_date": "2019-07-08"
  },
  {
    "end_date": "2019-07-09",
    "url": "https://djsperka.github.io/2019-07-08-strobe_berkeley/",
    "country": "US",
    "instructors": "Melissa Ko,Daniel Sperka",
    "venue": "University of California, Berkeley",
    "longitude": -122.25647,
    "slug": "2019-07-08-strobe_berkeley",
    "tag_name": "SWC",
    "helpers": null,
    "host_name": "STROBE",
    "latitude": 37.87225,
    "start_date": "2019-07-08"
  },
  {
    "end_date": "2019-07-10",
    "url": "https://bio-swc-bne.github.io/2019-07-09-Resbazbris-Python/",
    "country": "AU",
    "instructors": "Thom Cuddihy,Belinda Weaver,Stéphane Guillou",
    "venue": "ResBaz Brisbane - Python stream",
    "longitude": 153.0262263,
    "slug": "2019-07-09-Resbazbris-Python",
    "tag_name": "SWC",
    "helpers": null,
    "host_name": "Queensland University of Technology",
    "latitude": -27.4773522,
    "start_date": "2019-07-09"
  },
  {
    "end_date": "2019-07-10",
    "url": "https://bio-swc-bne.github.io/2019-07-09-Resbazbris-R/",
    "country": "AU",
    "instructors": "Heidi Perrett,Marieke Frassl,Atefeh Taherian Fard,Ido Bar",
    "venue": "ResBaz Brisbane - R stream",
    "longitude": 153.0262263,
    "slug": "2019-07-09-Resbazbris-R",
    "tag_name": "SWC",
    "helpers": "Conrad Leonard,Catherine Kim,Paula Andrea Martinez",
    "host_name": "Queensland University of Technology",
    "latitude": -27.4773522,
    "start_date": "2019-07-09"
  },
  {
    "end_date": "2019-07-11",
    "url": "https://cengel.github.io/2019-07-10-stanford/",
    "country": "US",
    "instructors": "Claudia Engel,Lorraine Ling,Linnea Shieh,João Rodrigues",
    "venue": "Stanford University",
    "longitude": -122.1649,
    "slug": "2019-07-10-stanford",
    "tag_name": "SWC",
    "helpers": "Ashley Jester,Zac Painter",
    "host_name": "Stanford University",
    "latitude": 37.42883,
    "start_date": "2019-07-10"
  },
  {
    "end_date": "2019-07-25",
    "url": "https://qcif-training.github.io/2019-07-24-JCU-Python/",
    "country": "AU",
    "instructors": "Daniel Baird",
    "venue": "James Cook University",
    "longitude": 145.686524,
    "slug": "2019-07-24-JCU-Python",
    "tag_name": "SWC",
    "helpers": null,
    "host_name": "Queensland Cyber Infrastructure Foundation",
    "latitude": -16.818504,
    "start_date": "2019-07-24"
  },
  {
    "end_date": "2019-07-25",
    "url": "https://mq-software-carpentry.github.io/2019-07-24-intro-to-python/",
    "country": "AU",
    "instructors": "Richard Miller,James Tocknell",
    "venue": "Macquarie University",
    "longitude": 151.113265,
    "slug": "2019-07-24-macquarie",
    "tag_name": "SWC",
    "helpers": null,
    "host_name": "Macquarie University",
    "latitude": -33.774858,
    "start_date": "2019-07-24"
  },
  {
    "end_date": "2019-08-08",
    "url": "https://bio-swc-bne.github.io/2019-08-06-GriffithUni-Python/",
    "country": "AU",
    "instructors": "Amanda Miotto",
    "venue": "Griffith University",
    "longitude": 153.378868,
    "slug": "2019-08-06-Griffith",
    "tag_name": "SWC",
    "helpers": null,
    "host_name": "Griffith University",
    "latitude": -27.960345,
    "start_date": "2019-08-06"
  },
  {
    "end_date": "2019-08-23",
    "url": "https://smeehan12.github.io/2019-08-19-usatlas-computing-bootcamp",
    "country": "US",
    "instructors": "Daniel Guest,Henry Schreiber,Samuel Meehan,Dan Guest,Matthew Feickert,Giordon Stark,Lukas Heinrich,Nils Krumnack,Henry Schreiner,Karol Krizka,Adam Parker,Kunal Marwaha,Kelly Rowland",
    "venue": "Lawrence Berkeley National Laboratory",
    "longitude": -122.25,
    "slug": "2019-08-19-usatlas-computing-bootcamp",
    "tag_name": "SWC",
    "helpers": "Shih Chieh Hsu,Zachary Marshall",
    "host_name": "Lawrence Berkeley National Laboratory",
    "latitude": 37.8759,
    "start_date": "2019-08-19"
  },
  {
    "end_date": "2019-08-22",
    "url": "https://odu-rcs.github.io/2019-08-21-odu/",
    "country": "US",
    "instructors": "Wirawan Purwanto,Terry Stilwell,Dan Barshis,Sophie Clayton",
    "venue": "Old Dominion University",
    "longitude": -76.300612,
    "slug": "2019-08-21-odu",
    "tag_name": "SWC",
    "helpers": null,
    "host_name": "Old Dominion University",
    "latitude": 36.884672,
    "start_date": "2019-08-21"
  },
  {
    "end_date": "2019-10-03",
    "url": "https://fgacenga.github.io/2019-10-02-usq/",
    "country": "AU",
    "instructors": "Francis Gacenga,Richard Young",
    "venue": "University of Southern Queensland",
    "longitude": 152.907227,
    "slug": "2019-10-02-usq",
    "tag_name": "SWC",
    "helpers": null,
    "host_name": "University of Southern Queensland",
    "latitude": -27.68401,
    "start_date": "2019-10-02"
  },
  {
    "end_date": "2019-10-17",
    "url": "https://bio-swc-bne.github.io/2019-10-16-GriffithUni-R/",
    "country": "AU",
    "instructors": "Amanda Miotto",
    "venue": "Griffith University",
    "longitude": 153.378868,
    "slug": "2019-10-16-Griffith",
    "tag_name": "SWC",
    "helpers": null,
    "host_name": "Griffith University",
    "latitude": -27.960345,
    "start_date": "2019-10-16"
  },
  {
    "end_date": "2019-10-18",
    "url": "https://malvikasharan.github.io/2019-10-16-heidelberg/",
    "country": "DE",
    "instructors": "Malvika Sharan,Toby Hodges,Thomas Schwarzl,Mike Smith,Holger Dinkel,Frank Thommen",
    "venue": "Computing Skills For Reproducible Research: Software Carpentry - EMBL, Heidelberg",
    "longitude": 8.710757,
    "slug": "2019-10-16-heidelberg",
    "tag_name": "SWC",
    "helpers": "Thea Van Rossum,Georg Zeller",
    "host_name": "European Molecular Biology Laboratory",
    "latitude": 49.38406,
    "start_date": "2019-10-16"
  },
  {
    "end_date": "2019-11-22",
    "url": "https://bio-swc-bne.github.io/2019-11-20-GriffithUni-Python/",
    "country": "AU",
    "instructors": "Amanda Miotto",
    "venue": "Griffith University",
    "longitude": 153.052425,
    "slug": "2019-11-20-Griffith",
    "tag_name": "SWC",
    "helpers": null,
    "host_name": "Griffith University",
    "latitude": -27.552941,
    "start_date": "2019-11-20"
  }
]
