[
  {
    "end_date": "2019-07-17",
    "url": "https://elixir-belgium.github.io/2019-04-16-BRU/",
    "country": "BE",
    "instructors": "Malvika Sharan,Stijn Van Hoey,Christof De Bo",
    "venue": "ELIXIR-Belgium Brussels",
    "longitude": 4.394176,
    "slug": "2019-04-16-BRU",
    "tag_name": "SWC",
    "helpers": null,
    "host_name": "ELIXIR-UK",
    "latitude": 50.824343,
    "start_date": "2019-04-16"
  },
  {
    "end_date": "2019-06-21",
    "url": "https://erdc.github.io/2019-06-17-erdc-swc/",
    "country": "US",
    "instructors": "Drew Loney,Chris Kees",
    "venue": "US Army ERDC",
    "longitude": -90.877884,
    "slug": "2019-06-17-erdc-swc",
    "tag_name": "SWC",
    "helpers": null,
    "host_name": "US Army Engineer Research and Development Center (ERDC)",
    "latitude": 32.352646,
    "start_date": "2019-06-17"
  },
  {
    "end_date": "2019-06-21",
    "url": "https://qcif-training.github.io/2019-06-20-CQUni-R/",
    "country": "AU",
    "instructors": "Jason Bell",
    "venue": "Central Queensland University",
    "longitude": 150.519112,
    "slug": "2019-06-20-CQUni",
    "tag_name": "SWC",
    "helpers": null,
    "host_name": "CQUniversity",
    "latitude": -23.324463,
    "start_date": "2019-06-20"
  },
  {
    "end_date": "2019-06-21",
    "url": "https://uci-libraries.github.io/2019-06-20-UCI/",
    "country": "US",
    "instructors": "Danielle Kane,Madelynn Dickerson,Mitchell Brown",
    "venue": "UC Irvine Libraries",
    "longitude": -117.8411,
    "slug": "2019-06-20-UCI",
    "tag_name": "SWC",
    "helpers": "Danielle Kane,Madelynn Dickerson,Mitchell Brown",
    "host_name": "University of California Irvine",
    "latitude": 33.647111,
    "start_date": "2019-06-20"
  },
  {
    "end_date": "2019-06-25",
    "url": "https://fgacenga.github.io/2019-06-24-usq",
    "country": "AU",
    "instructors": "Francis Gacenga,Richard Young",
    "venue": "University of Southern Queensland",
    "longitude": 151.935113,
    "slug": "2019-06-24-usq",
    "tag_name": "SWC",
    "helpers": null,
    "host_name": "University of Southern Queensland",
    "latitude": -27.606578,
    "start_date": "2019-06-24"
  },
  {
    "end_date": "2019-06-26",
    "url": "https://jtande.github.io/2019-06-25-ColbyCollege/",
    "country": "US",
    "instructors": "Jacob Fosso Tande",
    "venue": "Colby College",
    "longitude": -69.63131,
    "slug": "2019-06-25-ColbyCollege",
    "tag_name": "SWC",
    "helpers": null,
    "host_name": "Colby College",
    "latitude": 44.552841,
    "start_date": "2019-06-25"
  },
  {
    "end_date": "2019-06-28",
    "url": "https://qcif-training.github.io/2019-06-27-CQUni-Python/",
    "country": "AU",
    "instructors": "Jason Bell",
    "venue": "Central Queensland University",
    "longitude": 150.519112,
    "slug": "2019-06-27-CQUni",
    "tag_name": "SWC",
    "helpers": null,
    "host_name": "CQUniversity",
    "latitude": -23.324463,
    "start_date": "2019-06-27"
  },
  {
    "end_date": "2019-07-03",
    "url": "https://ucsdlib.github.io/2019-07-01-UCSD/",
    "country": "US",
    "instructors": "Guilherme Castelão,Ana Beatriz (Bia) Villas Boas,Reid Otsuji,Stephanie Labou",
    "venue": "Scripps Institution of Oceanography",
    "longitude": -117.251409,
    "slug": "2019-07-01-UCSD",
    "tag_name": "SWC",
    "helpers": null,
    "host_name": "University of California San Diego",
    "latitude": 32.86864,
    "start_date": "2019-07-01"
  },
  {
    "end_date": "2019-07-02",
    "url": "https://umswc.github.io/2019-07-1-umich/",
    "country": "US",
    "instructors": "Joshua Stough,Begum Topcuoglu,Kelly Sovacool",
    "venue": "University of Michigan",
    "longitude": -83.73823,
    "slug": "2019-07-01-umich",
    "tag_name": "SWC",
    "helpers": "Ariangela Kozik,Katherine McLean",
    "host_name": "University of Michigan",
    "latitude": 42.276616,
    "start_date": "2019-07-01"
  },
  {
    "end_date": "2019-07-05",
    "url": "https://elixir-iib-training.github.io/2019-07-05-naples-shell-git-python/",
    "country": "IT",
    "instructors": "Vincenza Colonna",
    "venue": "Biblioteca - National Research Council",
    "longitude": 14.22483,
    "slug": "2019-07-05-naples-shell-git-python",
    "tag_name": "SWC",
    "helpers": null,
    "host_name": "Consiglio Nazionale delle Ricerche",
    "latitude": 40.85459,
    "start_date": "2019-07-03"
  },
  {
    "end_date": "2019-07-09",
    "url": "https://4turesearchdata-carpentries.github.io/2019-07-08-delft/",
    "country": "NL",
    "instructors": "Kees den Heijer,Susan Branchett",
    "venue": "July 2019 SWC workshop @TU Delft",
    "longitude": 4.37113,
    "slug": "2019-07-08-delft",
    "tag_name": "SWC",
    "helpers": "Santosh Ilamparuthi,Heather Andrews,Nicolas Dintzner",
    "host_name": "Delft Univeristy of Technology",
    "latitude": 52.0015,
    "start_date": "2019-07-08"
  },
  {
    "end_date": "2019-07-09",
    "url": "https://djsperka.github.io/2019-07-08-strobe_berkeley/",
    "country": "US",
    "instructors": "Melissa Ko,Daniel Sperka",
    "venue": "",
    "longitude": null,
    "slug": "2019-07-08-strobe_berkeley",
    "tag_name": "SWC",
    "helpers": null,
    "host_name": "STROBE",
    "latitude": null,
    "start_date": "2019-07-08"
  },
  {
    "end_date": "2019-07-11",
    "url": "https://cengel.github.io/2019-07-10-stanford/",
    "country": "US",
    "instructors": "Claudia Engel,Lorraine Ling,Linnea Shieh,João Rodrigues",
    "venue": "Stanford University",
    "longitude": -122.1649,
    "slug": "2019-07-10-stanford",
    "tag_name": "SWC",
    "helpers": "Ashley Jester,Zac Painter",
    "host_name": "Stanford University",
    "latitude": 37.42883,
    "start_date": "2019-07-10"
  },
  {
    "end_date": "2019-08-08",
    "url": "https://bio-swc-bne.github.io/2019-08-06-GriffithUni-Python/",
    "country": "AU",
    "instructors": "Amanda Miotto",
    "venue": "Griffith University",
    "longitude": 153.378868,
    "slug": "2019-08-06-Griffith",
    "tag_name": "SWC",
    "helpers": null,
    "host_name": "Griffith University",
    "latitude": -27.960345,
    "start_date": "2019-08-06"
  },
  {
    "end_date": "2019-08-23",
    "url": "https://smeehan12.github.io/2019-08-19-usatlas-computing-bootcamp",
    "country": "US",
    "instructors": "Daniel Guest,Henry Schreiber,Samuel Meehan,Dan Guest,Matthew Feickert,Giordon Stark,Lukas Heinrich,Nils Krumnack,Henry Schreiner,Karol Krizka,Adam Parker",
    "venue": "Lawrence Berkeley National Laboratory",
    "longitude": -122.25,
    "slug": "2019-08-19-usatlas-computing-bootcamp",
    "tag_name": "SWC",
    "helpers": "Shih Chieh Hsu,Zachary Marshall",
    "host_name": "Lawrence Berkeley National Laboratory",
    "latitude": 37.8759,
    "start_date": "2019-08-19"
  },
  {
    "end_date": "2019-10-03",
    "url": "https://fgacenga.github.io/2019-10-02-usq/",
    "country": "AU",
    "instructors": "Francis Gacenga,Richard Young",
    "venue": "University of Southern Queensland",
    "longitude": 152.907227,
    "slug": "2019-10-02-usq",
    "tag_name": "SWC",
    "helpers": null,
    "host_name": "University of Southern Queensland",
    "latitude": -27.68401,
    "start_date": "2019-10-02"
  },
  {
    "end_date": "2019-10-17",
    "url": "https://bio-swc-bne.github.io/2019-10-16-GriffithUni-R/",
    "country": "AU",
    "instructors": "Amanda Miotto",
    "venue": "Griffith University",
    "longitude": 153.378868,
    "slug": "2019-10-16-Griffith",
    "tag_name": "SWC",
    "helpers": null,
    "host_name": "Griffith University",
    "latitude": -27.960345,
    "start_date": "2019-10-16"
  },
  {
    "end_date": "2019-10-18",
    "url": "https://malvikasharan.github.io/2019-10-16-heidelberg/",
    "country": "DE",
    "instructors": "Malvika Sharan,Toby Hodges,Thomas Schwarzl,Mike Smith,Holger Dinkel,Frank Thommen",
    "venue": "Computing Skills For Reproducible Research: Software Carpentry - EMBL, Heidelberg",
    "longitude": 8.710757,
    "slug": "2019-10-16-heidelberg",
    "tag_name": "SWC",
    "helpers": "Thea Van Rossum,Georg Zeller",
    "host_name": "European Molecular Biology Laboratory",
    "latitude": 49.38406,
    "start_date": "2019-10-16"
  },
  {
    "end_date": "2019-11-22",
    "url": "https://bio-swc-bne.github.io/2019-11-20-GriffithUni-Python/",
    "country": "AU",
    "instructors": "Amanda Miotto",
    "venue": "Griffith University",
    "longitude": 153.052425,
    "slug": "2019-11-20-Griffith",
    "tag_name": "SWC",
    "helpers": null,
    "host_name": "Griffith University",
    "latitude": -27.552941,
    "start_date": "2019-11-20"
  }
]
