[
  {
    "instructors": "Stephanie Pierce,Michael Gibbs",
    "end_date": "2019-10-19",
    "url": "https://marieeriley.github.io/2019-10-18-uark/",
    "country": "US",
    "curriculum": "swc-python",
    "venue": "University of Arkansas",
    "longitude": -94.168058,
    "slug": "2019-10-18-uark",
    "tag_name": "SWC",
    "helpers": "James McCartney,Joe Paparo,Lora Lennertz,Nick Salonen",
    "host_name": "University of Arkansas",
    "latitude": 36.042345,
    "start_date": "2019-10-18"
  },
  {
    "instructors": "Ashar Malik",
    "end_date": "2019-10-23",
    "url": "https://proteinmechanic.github.io/2019-10-21-BioinformaticsInstitute/",
    "country": "SG",
    "curriculum": "swc-other",
    "venue": "The Bioinformatics Institute, A*STAR",
    "longitude": 103.792545,
    "slug": "2019-10-21-BioinformaticsInstitute",
    "tag_name": "SWC",
    "helpers": null,
    "host_name": "The Bioinformatics Institute",
    "latitude": 1.303419,
    "start_date": "2019-10-21"
  },
  {
    "instructors": "Silvia Di Giorgio,Konrad Förstner,Till Sauerwein",
    "end_date": "2019-10-22",
    "url": "https://zbmed.github.io/2019-10-21-Software-Carpentry-Cologne/",
    "country": "DE",
    "curriculum": "swc-python",
    "venue": "ZB MED",
    "longitude": 6.91646,
    "slug": "2019-10-21-Software-Carpentry-Cologne",
    "tag_name": "SWC",
    "helpers": "Eva Seidlmayer,Klaus Lippert",
    "host_name": "ZB Med Information Centre for Life Sciences",
    "latitude": 50.92465,
    "start_date": "2019-10-21"
  },
  {
    "instructors": "Carrie Brown",
    "end_date": "2019-10-22",
    "url": "http://rcg.usd.edu/2019-10-21-USD/",
    "country": "US",
    "curriculum": "swc-reproducible-science",
    "venue": "University of South Dakota",
    "longitude": -96.923922,
    "slug": "2019-10-21-USD",
    "tag_name": "SWC",
    "helpers": "Ryan Johnson",
    "host_name": "University of Nebraska",
    "latitude": 42.785553,
    "start_date": "2019-10-21"
  },
  {
    "instructors": "Niall Beard,David Perez-Suarez",
    "end_date": "2019-10-22",
    "url": "https://uio-carpentry.github.io/2019-10-21-swc-ntnu/",
    "country": "NO",
    "curriculum": "swc-python",
    "venue": "Norwegian University of Science and Technology",
    "longitude": 10.39844,
    "slug": "2019-10-21-swc-ntnu",
    "tag_name": "SWC",
    "helpers": null,
    "host_name": "University of Oslo",
    "latitude": 63.43457,
    "start_date": "2019-10-21"
  },
  {
    "instructors": "José Ignacio Lucas Lledó",
    "end_date": "2019-10-23",
    "url": "https://ignasilucas.github.io/2019-10-22-ICBiBE/",
    "country": "ES",
    "curriculum": "swc-reproducible-science",
    "venue": "Institut Cavanilles de Biodiversitat i Biologia Evolutiva",
    "longitude": -0.42511,
    "slug": "2019-10-22-ICBiBE",
    "tag_name": "SWC",
    "helpers": null,
    "host_name": "Universitat de València",
    "latitude": 39.514449,
    "start_date": "2019-10-22"
  },
  {
    "instructors": "Yuka Takemon,Bruno Grande",
    "end_date": "2019-10-23",
    "url": "https://ytakemon.github.io/2019-10-22-R-BCCRC/",
    "country": "CA",
    "curriculum": "swc-reproducible-science",
    "venue": "BC Cancer Research Centre",
    "longitude": -123.11872,
    "slug": "2019-10-22-R-BCCRC",
    "tag_name": "SWC",
    "helpers": null,
    "host_name": "British Columbia Cancer Research Centre",
    "latitude": 49.26258,
    "start_date": "2019-10-22"
  },
  {
    "instructors": "Luke Johnston,Kristian Tylén",
    "end_date": "2019-10-23",
    "url": "https://au-cru.github.io/2019-10-22-aarhus/",
    "country": "DK",
    "curriculum": "swc-r",
    "venue": "Aarhus University",
    "longitude": 10.190455,
    "slug": "2019-10-22-aarhus",
    "tag_name": "SWC",
    "helpers": "oana vuculescu",
    "host_name": "Aarhus University",
    "latitude": 56.172332,
    "start_date": "2019-10-22"
  },
  {
    "instructors": "Ed Bennett,Mark Dawson",
    "end_date": "2019-10-24",
    "url": "https://sa2c.github.io/2019-10-23-swansea",
    "country": "GB",
    "curriculum": "swc-python",
    "venue": "Singleton Campus, Swansea University",
    "longitude": -3.97837,
    "slug": "2019-10-23-swansea",
    "tag_name": "SWC",
    "helpers": null,
    "host_name": "Swansea University",
    "latitude": 51.609069,
    "start_date": "2019-10-23"
  },
  {
    "instructors": "yectli huerta,Elena Auer,Caitlin Bakker",
    "end_date": "2019-10-25",
    "url": "https://chaochihl.github.io/2019-10-24-umntc/",
    "country": "US",
    "curriculum": "swc-r",
    "venue": "University of Minnesota",
    "longitude": -93.24285,
    "slug": "2019-10-24-umntc",
    "tag_name": "SWC",
    "helpers": "Cody Hennesy,yectli huerta,Elena Auer,Caitlin Bakker,Jon Badalamenti,David Naughton",
    "host_name": "University of Minnesota",
    "latitude": 44.97348,
    "start_date": "2019-10-24"
  },
  {
    "instructors": "Daniel Stubbs,Nikolai Sergueev",
    "end_date": "2019-10-25",
    "url": "https://computecanada.github.io/2019-10-24-umontreal/",
    "country": "CA",
    "curriculum": "swc-python",
    "venue": "Université de Montréal",
    "longitude": -73.617541,
    "slug": "2019-10-24-umontreal",
    "tag_name": "SWC",
    "helpers": "Pier-Luc St-Onge,Bart Oldeman",
    "host_name": "Universite de Montreal",
    "latitude": 45.502277,
    "start_date": "2019-10-24"
  },
  {
    "instructors": "Uwe Hilgert,Xue Pan,Sateesh Peri,Travis Struck",
    "end_date": "2019-10-27",
    "url": "https://UA-Carpentries-Workshops.github.io/2019-10-26-Tucson",
    "country": "US",
    "curriculum": "swc-reproducible-science",
    "venue": "University of Arizona",
    "longitude": -110.9495,
    "slug": "2019-10-26-Tucson",
    "tag_name": "SWC",
    "helpers": "Cristian Palacios,Fernando Rios",
    "host_name": "University of Arizona",
    "latitude": 32.231901,
    "start_date": "2019-10-26"
  },
  {
    "instructors": "Kevin Dyke,Peter Hoyt",
    "end_date": "2019-11-22",
    "url": "https://osu-carpentry.github.io/2019-11-01-okstate/",
    "country": "US",
    "curriculum": "swc-python",
    "venue": "Oklahoma State University",
    "longitude": -97.069612,
    "slug": "2019-11-01-okstate",
    "tag_name": "SWC",
    "helpers": "Hua Lin",
    "host_name": "Oklahoma State University",
    "latitude": 36.122987,
    "start_date": "2019-11-01"
  },
  {
    "instructors": "David Pugh",
    "end_date": "2019-11-03",
    "url": "https://kaust-vislab.github.io/2019-11-03-kaust-vislab/",
    "country": "SA",
    "curriculum": "swc-other",
    "venue": "KAUST Visualization Lab",
    "longitude": 39.105358,
    "slug": "2019-11-03-kaust-vislab",
    "tag_name": "SWC",
    "helpers": null,
    "host_name": "King Abdullah University of Science and Technology",
    "latitude": 22.307807,
    "start_date": "2019-11-03"
  },
  {
    "instructors": "David Pugh",
    "end_date": "2019-11-04",
    "url": "https://kaust-vislab.github.io/2019-11-04-kaust-vislab/",
    "country": "SA",
    "curriculum": "swc-other",
    "venue": "KAUST Visualization Lab",
    "longitude": 39.105358,
    "slug": "2019-11-04-kaust-vislab",
    "tag_name": "SWC",
    "helpers": null,
    "host_name": "King Abdullah University of Science and Technology",
    "latitude": 22.307807,
    "start_date": "2019-11-04"
  },
  {
    "instructors": "Chaochih Liu,Cody Hennesy,Nicholas Dunn",
    "end_date": "2019-11-08",
    "url": "https://chaochihl.github.io/2019-11-07-umntc/",
    "country": "US",
    "curriculum": "swc-python",
    "venue": "University of Minnesota",
    "longitude": -93.23136,
    "slug": "2019-11-07-umntc",
    "tag_name": "SWC",
    "helpers": "Cody Hennesy,Caitlin Bakker,Nicholas Dunn,Elena Auer,David Naughton",
    "host_name": "University of Minnesota",
    "latitude": 44.97173,
    "start_date": "2019-11-07"
  },
  {
    "instructors": "Maristella Feustle,Kristy Phillips,Lauren Ko,Mark Phillips",
    "end_date": "2019-11-12",
    "url": "https://unt-carpentries.github.io/2019-11-11-unt-swc/",
    "country": "US",
    "curriculum": "swc-reproducible-science",
    "venue": "University of North Texas",
    "longitude": -97.148954,
    "slug": "2019-11-11-unt-swc",
    "tag_name": "SWC",
    "helpers": "Sarah Fisher,Madhulika Bayyavarapu",
    "host_name": "University of North Texas",
    "latitude": 33.210068,
    "start_date": "2019-11-11"
  },
  {
    "instructors": "Susan Branchett,Nicolas Dintzner",
    "end_date": "2019-11-14",
    "url": "https://4turesearchdata-carpentries.github.io/2019-11-13-delft/",
    "country": "NL",
    "curriculum": "swc-python",
    "venue": "November 2019 SWC workshop @TU/Delft",
    "longitude": 4.37524,
    "slug": "2019-11-13-delft",
    "tag_name": "SWC",
    "helpers": null,
    "host_name": "Delft Univeristy of Technology",
    "latitude": 52.002677,
    "start_date": "2019-11-13"
  },
  {
    "instructors": "Matthias Bussonnier,Sarvani Chadalapaka",
    "end_date": "2019-11-15",
    "url": "https://ucmerced.github.io/2019-11-14-ucmerced/.",
    "country": "US",
    "curriculum": "swc-python",
    "venue": "UC Merced",
    "longitude": -120.424369,
    "slug": "2019-11-14-ucmerced",
    "tag_name": "SWC",
    "helpers": "Jasper Field",
    "host_name": "University of California Merced",
    "latitude": 37.3664,
    "start_date": "2019-11-14"
  },
  {
    "instructors": "Amanda Miotto",
    "end_date": "2019-11-22",
    "url": "https://bio-swc-bne.github.io/2019-11-20-GriffithUni-Python/",
    "country": "AU",
    "curriculum": "swc-python",
    "venue": "Griffith University",
    "longitude": 153.052425,
    "slug": "2019-11-20-Griffith",
    "tag_name": "SWC",
    "helpers": null,
    "host_name": "Griffith University",
    "latitude": -27.552941,
    "start_date": "2019-11-20"
  },
  {
    "instructors": "João Rodrigues,Jake Lever",
    "end_date": "2019-11-21",
    "url": "https://jakelever.github.io/2019-11-21-stanford_medicine/",
    "country": "US",
    "curriculum": "swc-python",
    "venue": "Stanford University Medicine",
    "longitude": -122.175812,
    "slug": "2019-11-21-stanford_medicine",
    "tag_name": "SWC",
    "helpers": null,
    "host_name": "Stanford University",
    "latitude": 37.43185,
    "start_date": "2019-11-21"
  },
  {
    "instructors": "Inigo Aldazabal Mensa,Andrés Díaz-Gil,Alfonso Nunez,Bryan Zaldivar",
    "end_date": "2019-11-29",
    "url": "https://marcosjerez.github.io/2019-11-27-cftmat",
    "country": "ES",
    "curriculum": "swc-other,swc-python",
    "venue": "Centro de Física Teórica y Matemáticas",
    "longitude": -3.687608,
    "slug": "2019-11-27-cftmat",
    "tag_name": "SWC",
    "helpers": "Marcos Ramírez,Emilio Ambite,Eduardo de Cordoba",
    "host_name": "The Centro de Física Teórica y Matemáticas (CFTMAT)",
    "latitude": 40.549532,
    "start_date": "2019-11-28"
  }
]
